{
"type": "FeatureCollection",
"name": "65482_caps mun 01 01 2019",
"features": [
{ "type": "Feature", "styles": { "radius": 6, "isCanvas": true, "fillColor": "#ffc500", "color": "#ffffff", "weight": 2, "fillOpacity": 0.900000, "opacity": 1, "tipus": "marker", "_dashArray": null }, "properties": { "tipuscap": "M", "nomcap": "Sant Cebrià de Vallalta", "codimuni": "082037", "capprov": "N", "dataalta": "201707262100", "codiprov": "08", "codicomar": "21" }, "geometry": { "type": "Point", "coordinates": [ 2.59941, 41.619471 ] } },
{ "type": "Feature", "styles": { "radius": 6, "isCanvas": true, "fillColor": "#ffc500", "color": "#ffffff", "weight": 2, "fillOpacity": 0.900000, "opacity": 1, "tipus": "marker", "_dashArray": null }, "properties": { "tipuscap": "M", "nomcap": "Esparreguera", "codimuni": "080765", "capprov": "N", "dataalta": "201707262100", "codiprov": "08", "codicomar": "11" }, "geometry": { "type": "Point", "coordinates": [ 1.870709, 41.538966 ] } },
{ "type": "Feature", "styles": { "radius": 6, "isCanvas": true, "fillColor": "#ffc500", "color": "#ffffff", "weight": 2, "fillOpacity": 0.900000, "opacity": 1, "tipus": "marker", "_dashArray": null }, "properties": { "tipuscap": "M", "nomcap": "Cabrils", "codimuni": "080305", "capprov": "N", "dataalta": "201707262100", "codiprov": "08", "codicomar": "21" }, "geometry": { "type": "Point", "coordinates": [ 2.367716, 41.526224 ] } },
{ "type": "Feature", "styles": { "radius": 6, "isCanvas": true, "fillColor": "#ffc500", "color": "#ffffff", "weight": 2, "fillOpacity": 0.900000, "opacity": 1, "tipus": "marker", "_dashArray": null }, "properties": { "tipuscap": "C", "nomcap": "Puigcerdà", "codimuni": "171411", "capprov": "N", "dataalta": "201707262100", "codiprov": "17", "codicomar": "15" }, "geometry": { "type": "Point", "coordinates": [ 1.926948, 42.43263 ] } },
{ "type": "Feature", "styles": { "radius": 6, "isCanvas": true, "fillColor": "#ffc500", "color": "#ffffff", "weight": 2, "fillOpacity": 0.900000, "opacity": 1, "tipus": "marker", "_dashArray": null }, "properties": { "tipuscap": "M", "nomcap": "Bràfim", "codimuni": "430347", "capprov": "N", "dataalta": "201707262100", "codiprov": "43", "codicomar": "01" }, "geometry": { "type": "Point", "coordinates": [ 1.341137, 41.268738 ] } },
{ "type": "Feature", "styles": { "radius": 6, "isCanvas": true, "fillColor": "#ffc500", "color": "#ffffff", "weight": 2, "fillOpacity": 0.900000, "opacity": 1, "tipus": "marker", "_dashArray": null }, "properties": { "tipuscap": "M", "nomcap": "Sant Joan de les Abadesses", "codimuni": "171674", "capprov": "N", "dataalta": "201707262100", "codiprov": "17", "codicomar": "31" }, "geometry": { "type": "Point", "coordinates": [ 2.284831, 42.232808 ] } },
{ "type": "Feature", "styles": { "radius": 6, "isCanvas": true, "fillColor": "#ffc500", "color": "#ffffff", "weight": 2, "fillOpacity": 0.900000, "opacity": 1, "tipus": "marker", "_dashArray": null }, "properties": { "tipuscap": "M", "nomcap": "la Galera", "codimuni": "430635", "capprov": "N", "dataalta": "201707262100", "codiprov": "43", "codicomar": "22" }, "geometry": { "type": "Point", "coordinates": [ 0.463731, 40.681556 ] } },
{ "type": "Feature", "styles": { "radius": 6, "isCanvas": true, "fillColor": "#ffc500", "color": "#ffffff", "weight": 2, "fillOpacity": 0.900000, "opacity": 1, "tipus": "marker", "_dashArray": null }, "properties": { "tipuscap": "M", "nomcap": "Portbou", "codimuni": "171387", "capprov": "N", "dataalta": "201707262100", "codiprov": "17", "codicomar": "02" }, "geometry": { "type": "Point", "coordinates": [ 3.16247, 42.42638 ] } },
{ "type": "Feature", "styles": { "radius": 6, "isCanvas": true, "fillColor": "#ffc500", "color": "#ffffff", "weight": 2, "fillOpacity": 0.900000, "opacity": 1, "tipus": "marker", "_dashArray": null }, "properties": { "tipuscap": "M", "nomcap": "Altafulla", "codimuni": "430120", "capprov": "N", "dataalta": "201707262100", "codiprov": "43", "codicomar": "36" }, "geometry": { "type": "Point", "coordinates": [ 1.376897, 41.142273 ] } },
{ "type": "Feature", "styles": { "radius": 6, "isCanvas": true, "fillColor": "#ffc500", "color": "#ffffff", "weight": 2, "fillOpacity": 0.900000, "opacity": 1, "tipus": "marker", "_dashArray": null }, "properties": { "tipuscap": "M", "nomcap": "Rodonyà", "codimuni": "431325", "capprov": "N", "dataalta": "201707262100", "codiprov": "43", "codicomar": "01" }, "geometry": { "type": "Point", "coordinates": [ 1.399037, 41.280037 ] } },
{ "type": "Feature", "styles": { "radius": 6, "isCanvas": true, "fillColor": "#ffc500", "color": "#ffffff", "weight": 2, "fillOpacity": 0.900000, "opacity": 1, "tipus": "marker", "_dashArray": null }, "properties": { "tipuscap": "M", "nomcap": "la Fuliola", "codimuni": "250962", "capprov": "N", "dataalta": "201707262100", "codiprov": "25", "codicomar": "38" }, "geometry": { "type": "Point", "coordinates": [ 1.019023, 41.71456 ] } },
{ "type": "Feature", "styles": { "radius": 6, "isCanvas": true, "fillColor": "#ffc500", "color": "#ffffff", "weight": 2, "fillOpacity": 0.900000, "opacity": 1, "tipus": "marker", "_dashArray": null }, "properties": { "tipuscap": "M", "nomcap": "Lavit", "codimuni": "082877", "capprov": "N", "dataalta": "201707262100", "codiprov": "08", "codicomar": "03" }, "geometry": { "type": "Point", "coordinates": [ 1.729906, 41.446345 ] } },
{ "type": "Feature", "styles": { "radius": 6, "isCanvas": true, "fillColor": "#ffc500", "color": "#ffffff", "weight": 2, "fillOpacity": 0.900000, "opacity": 1, "tipus": "marker", "_dashArray": null }, "properties": { "tipuscap": "M", "nomcap": "Almenar", "codimuni": "250215", "capprov": "N", "dataalta": "201707262100", "codiprov": "25", "codicomar": "33" }, "geometry": { "type": "Point", "coordinates": [ 0.567376, 41.798066 ] } },
{ "type": "Feature", "styles": { "radius": 6, "isCanvas": true, "fillColor": "#ffc500", "color": "#ffffff", "weight": 2, "fillOpacity": 0.900000, "opacity": 1, "tipus": "marker", "_dashArray": null }, "properties": { "tipuscap": "M", "nomcap": "Sant Pere de Riudebitlles", "codimuni": "082325", "capprov": "N", "dataalta": "201707262100", "codiprov": "08", "codicomar": "03" }, "geometry": { "type": "Point", "coordinates": [ 1.701327, 41.453194 ] } },
{ "type": "Feature", "styles": { "radius": 6, "isCanvas": true, "fillColor": "#ffc500", "color": "#ffffff", "weight": 2, "fillOpacity": 0.900000, "opacity": 1, "tipus": "marker", "_dashArray": null }, "properties": { "tipuscap": "M", "nomcap": "Foradada", "codimuni": "250946", "capprov": "N", "dataalta": "201707262100", "codiprov": "25", "codicomar": "23" }, "geometry": { "type": "Point", "coordinates": [ 1.012814, 41.877157 ] } },
{ "type": "Feature", "styles": { "radius": 6, "isCanvas": true, "fillColor": "#ffc500", "color": "#ffffff", "weight": 2, "fillOpacity": 0.900000, "opacity": 1, "tipus": "marker", "_dashArray": null }, "properties": { "tipuscap": "M", "nomcap": "Santa Margarida de Montbui", "codimuni": "082508", "capprov": "N", "dataalta": "201707262100", "codiprov": "08", "codicomar": "06" }, "geometry": { "type": "Point", "coordinates": [ 1.608066, 41.573828 ] } },
{ "type": "Feature", "styles": { "radius": 6, "isCanvas": true, "fillColor": "#ffc500", "color": "#ffffff", "weight": 2, "fillOpacity": 0.900000, "opacity": 1, "tipus": "marker", "_dashArray": null }, "properties": { "tipuscap": "M", "nomcap": "Artesa de Lleida", "codimuni": "250334", "capprov": "N", "dataalta": "201707262100", "codiprov": "25", "codicomar": "33" }, "geometry": { "type": "Point", "coordinates": [ 0.703395, 41.551743 ] } },
{ "type": "Feature", "styles": { "radius": 6, "isCanvas": true, "fillColor": "#ffc500", "color": "#ffffff", "weight": 2, "fillOpacity": 0.900000, "opacity": 1, "tipus": "marker", "_dashArray": null }, "properties": { "tipuscap": "M", "nomcap": "Sant Climent de Llobregat", "codimuni": "082042", "capprov": "N", "dataalta": "201707262100", "codiprov": "08", "codicomar": "11" }, "geometry": { "type": "Point", "coordinates": [ 1.99642, 41.337071 ] } },
{ "type": "Feature", "styles": { "radius": 6, "isCanvas": true, "fillColor": "#ffc500", "color": "#ffffff", "weight": 2, "fillOpacity": 0.900000, "opacity": 1, "tipus": "marker", "_dashArray": null }, "properties": { "tipuscap": "M", "nomcap": "Maspujols", "codimuni": "430810", "capprov": "N", "dataalta": "201707262100", "codiprov": "43", "codicomar": "08" }, "geometry": { "type": "Point", "coordinates": [ 1.045839, 41.181946 ] } },
{ "type": "Feature", "styles": { "radius": 6, "isCanvas": true, "fillColor": "#ffc500", "color": "#ffffff", "weight": 2, "fillOpacity": 0.900000, "opacity": 1, "tipus": "marker", "_dashArray": null }, "properties": { "tipuscap": "M", "nomcap": "Balsareny", "codimuni": "080180", "capprov": "N", "dataalta": "201707262100", "codiprov": "08", "codicomar": "07" }, "geometry": { "type": "Point", "coordinates": [ 1.87682, 41.863213 ] } },
{ "type": "Feature", "styles": { "radius": 6, "isCanvas": true, "fillColor": "#ffc500", "color": "#ffffff", "weight": 2, "fillOpacity": 0.900000, "opacity": 1, "tipus": "marker", "_dashArray": null }, "properties": { "tipuscap": "M", "nomcap": "Llorenç del Penedès", "codimuni": "430748", "capprov": "N", "dataalta": "201707262100", "codiprov": "43", "codicomar": "12" }, "geometry": { "type": "Point", "coordinates": [ 1.552917, 41.282935 ] } },
{ "type": "Feature", "styles": { "radius": 6, "isCanvas": true, "fillColor": "#ffc500", "color": "#ffffff", "weight": 2, "fillOpacity": 0.900000, "opacity": 1, "tipus": "marker", "_dashArray": null }, "properties": { "tipuscap": "M", "nomcap": "Sant Just Desvern", "codimuni": "082212", "capprov": "N", "dataalta": "201707262100", "codiprov": "08", "codicomar": "11" }, "geometry": { "type": "Point", "coordinates": [ 2.075561, 41.385728 ] } },
{ "type": "Feature", "styles": { "radius": 6, "isCanvas": true, "fillColor": "#ffc500", "color": "#ffffff", "weight": 2, "fillOpacity": 0.900000, "opacity": 1, "tipus": "marker", "_dashArray": null }, "properties": { "tipuscap": "M", "nomcap": "Manlleu", "codimuni": "081120", "capprov": "N", "dataalta": "201707262100", "codiprov": "08", "codicomar": "24" }, "geometry": { "type": "Point", "coordinates": [ 2.283578, 41.999939 ] } },
{ "type": "Feature", "styles": { "radius": 6, "isCanvas": true, "fillColor": "#ffc500", "color": "#ffffff", "weight": 2, "fillOpacity": 0.900000, "opacity": 1, "tipus": "marker", "_dashArray": null }, "properties": { "tipuscap": "M", "nomcap": "Muntanyola", "codimuni": "081290", "capprov": "N", "dataalta": "201707262100", "codiprov": "08", "codicomar": "24" }, "geometry": { "type": "Point", "coordinates": [ 2.177585, 41.87841 ] } },
{ "type": "Feature", "styles": { "radius": 6, "isCanvas": true, "fillColor": "#ffc500", "color": "#ffffff", "weight": 2, "fillOpacity": 0.900000, "opacity": 1, "tipus": "marker", "_dashArray": null }, "properties": { "tipuscap": "M", "nomcap": "els Pallaresos", "codimuni": "431009", "capprov": "N", "dataalta": "201707262100", "codiprov": "43", "codicomar": "36" }, "geometry": { "type": "Point", "coordinates": [ 1.271857, 41.17536 ] } },
{ "type": "Feature", "styles": { "radius": 6, "isCanvas": true, "fillColor": "#ffc500", "color": "#ffffff", "weight": 2, "fillOpacity": 0.900000, "opacity": 1, "tipus": "marker", "_dashArray": null }, "properties": { "tipuscap": "M", "nomcap": "Mieres", "codimuni": "171058", "capprov": "N", "dataalta": "201707262100", "codiprov": "17", "codicomar": "19" }, "geometry": { "type": "Point", "coordinates": [ 2.63989, 42.12416 ] } },
{ "type": "Feature", "styles": { "radius": 6, "isCanvas": true, "fillColor": "#ffc500", "color": "#ffffff", "weight": 2, "fillOpacity": 0.900000, "opacity": 1, "tipus": "marker", "_dashArray": null }, "properties": { "tipuscap": "M", "nomcap": "Sant Vicenç de Torelló", "codimuni": "082652", "capprov": "N", "dataalta": "201707262100", "codiprov": "08", "codicomar": "24" }, "geometry": { "type": "Point", "coordinates": [ 2.274015, 42.062601 ] } },
{ "type": "Feature", "styles": { "radius": 6, "isCanvas": true, "fillColor": "#ffc500", "color": "#ffffff", "weight": 2, "fillOpacity": 0.900000, "opacity": 1, "tipus": "marker", "_dashArray": null }, "properties": { "tipuscap": "C", "nomcap": "Montblanc", "codimuni": "430862", "capprov": "N", "dataalta": "201707262100", "codiprov": "43", "codicomar": "16" }, "geometry": { "type": "Point", "coordinates": [ 1.161387, 41.376777 ] } },
{ "type": "Feature", "styles": { "radius": 6, "isCanvas": true, "fillColor": "#ffc500", "color": "#ffffff", "weight": 2, "fillOpacity": 0.900000, "opacity": 1, "tipus": "marker", "_dashArray": null }, "properties": { "tipuscap": "M", "nomcap": "Fornells de la Selva", "codimuni": "170736", "capprov": "N", "dataalta": "201707262100", "codiprov": "17", "codicomar": "20" }, "geometry": { "type": "Point", "coordinates": [ 2.810457, 41.934627 ] } },
{ "type": "Feature", "styles": { "radius": 6, "isCanvas": true, "fillColor": "#ffc500", "color": "#ffffff", "weight": 2, "fillOpacity": 0.900000, "opacity": 1, "tipus": "marker", "_dashArray": null }, "properties": { "tipuscap": "M", "nomcap": "la Guingueta d'Àneu", "codimuni": "259031", "capprov": "N", "dataalta": "201707262100", "codiprov": "25", "codicomar": "26" }, "geometry": { "type": "Point", "coordinates": [ 1.131988, 42.594297 ] } },
{ "type": "Feature", "styles": { "radius": 6, "isCanvas": true, "fillColor": "#ffc500", "color": "#ffffff", "weight": 2, "fillOpacity": 0.900000, "opacity": 1, "tipus": "marker", "_dashArray": null }, "properties": { "tipuscap": "M", "nomcap": "Granera", "codimuni": "080958", "capprov": "N", "dataalta": "201707262100", "codiprov": "08", "codicomar": "42" }, "geometry": { "type": "Point", "coordinates": [ 2.057173, 41.725417 ] } },
{ "type": "Feature", "styles": { "radius": 6, "isCanvas": true, "fillColor": "#ffc500", "color": "#ffffff", "weight": 2, "fillOpacity": 0.900000, "opacity": 1, "tipus": "marker", "_dashArray": null }, "properties": { "tipuscap": "M", "nomcap": "la Vajol", "codimuni": "170144", "capprov": "N", "dataalta": "201707262100", "codiprov": "17", "codicomar": "02" }, "geometry": { "type": "Point", "coordinates": [ 2.800343, 42.403781 ] } },
{ "type": "Feature", "styles": { "radius": 6, "isCanvas": true, "fillColor": "#ffc500", "color": "#ffffff", "weight": 2, "fillOpacity": 0.900000, "opacity": 1, "tipus": "marker", "_dashArray": null }, "properties": { "tipuscap": "M", "nomcap": "Capmany", "codimuni": "170427", "capprov": "N", "dataalta": "201707262100", "codiprov": "17", "codicomar": "02" }, "geometry": { "type": "Point", "coordinates": [ 2.920941, 42.372625 ] } },
{ "type": "Feature", "styles": { "radius": 6, "isCanvas": true, "fillColor": "#ffc500", "color": "#ffffff", "weight": 2, "fillOpacity": 0.900000, "opacity": 1, "tipus": "marker", "_dashArray": null }, "properties": { "tipuscap": "M", "nomcap": "l'Escala", "codimuni": "170622", "capprov": "N", "dataalta": "201707262100", "codiprov": "17", "codicomar": "02" }, "geometry": { "type": "Point", "coordinates": [ 3.133768, 42.125059 ] } },
{ "type": "Feature", "styles": { "radius": 6, "isCanvas": true, "fillColor": "#ffc500", "color": "#ffffff", "weight": 2, "fillOpacity": 0.900000, "opacity": 1, "tipus": "marker", "_dashArray": null }, "properties": { "tipuscap": "M", "nomcap": "Botarell", "codimuni": "430332", "capprov": "N", "dataalta": "201707262100", "codiprov": "43", "codicomar": "08" }, "geometry": { "type": "Point", "coordinates": [ 0.988702, 41.136188 ] } },
{ "type": "Feature", "styles": { "radius": 6, "isCanvas": true, "fillColor": "#ffc500", "color": "#ffffff", "weight": 2, "fillOpacity": 0.900000, "opacity": 1, "tipus": "marker", "_dashArray": null }, "properties": { "tipuscap": "M", "nomcap": "Santa Pau", "codimuni": "171848", "capprov": "N", "dataalta": "201707262100", "codiprov": "17", "codicomar": "19" }, "geometry": { "type": "Point", "coordinates": [ 2.569689, 42.144868 ] } },
{ "type": "Feature", "styles": { "radius": 6, "isCanvas": true, "fillColor": "#ffc500", "color": "#ffffff", "weight": 2, "fillOpacity": 0.900000, "opacity": 1, "tipus": "marker", "_dashArray": null }, "properties": { "tipuscap": "M", "nomcap": "Torrelles de Foix", "codimuni": "082883", "capprov": "N", "dataalta": "201707262100", "codiprov": "08", "codicomar": "03" }, "geometry": { "type": "Point", "coordinates": [ 1.56894, 41.388472 ] } },
{ "type": "Feature", "styles": { "radius": 6, "isCanvas": true, "fillColor": "#ffc500", "color": "#ffffff", "weight": 2, "fillOpacity": 0.900000, "opacity": 1, "tipus": "marker", "_dashArray": null }, "properties": { "tipuscap": "M", "nomcap": "el Masroig", "codimuni": "430825", "capprov": "N", "dataalta": "201707262100", "codiprov": "43", "codicomar": "29" }, "geometry": { "type": "Point", "coordinates": [ 0.731302, 41.126668 ] } },
{ "type": "Feature", "styles": { "radius": 6, "isCanvas": true, "fillColor": "#ffc500", "color": "#ffffff", "weight": 2, "fillOpacity": 0.900000, "opacity": 1, "tipus": "marker", "_dashArray": null }, "properties": { "tipuscap": "M", "nomcap": "Gallifa", "codimuni": "080879", "capprov": "N", "dataalta": "201707262100", "codiprov": "08", "codicomar": "40" }, "geometry": { "type": "Point", "coordinates": [ 2.115699, 41.693115 ] } },
{ "type": "Feature", "styles": { "radius": 6, "isCanvas": true, "fillColor": "#ffc500", "color": "#ffffff", "weight": 2, "fillOpacity": 0.900000, "opacity": 1, "tipus": "marker", "_dashArray": null }, "properties": { "tipuscap": "M", "nomcap": "Palafolls", "codimuni": "081555", "capprov": "N", "dataalta": "201707262100", "codiprov": "08", "codicomar": "21" }, "geometry": { "type": "Point", "coordinates": [ 2.749413, 41.667246 ] } },
{ "type": "Feature", "styles": { "radius": 6, "isCanvas": true, "fillColor": "#ffc500", "color": "#ffffff", "weight": 2, "fillOpacity": 0.900000, "opacity": 1, "tipus": "marker", "_dashArray": null }, "properties": { "tipuscap": "M", "nomcap": "Constantí", "codimuni": "430477", "capprov": "N", "dataalta": "201707262100", "codiprov": "43", "codicomar": "36" }, "geometry": { "type": "Point", "coordinates": [ 1.213727, 41.153087 ] } },
{ "type": "Feature", "styles": { "radius": 6, "isCanvas": true, "fillColor": "#ffc500", "color": "#ffffff", "weight": 2, "fillOpacity": 0.900000, "opacity": 1, "tipus": "marker", "_dashArray": null }, "properties": { "tipuscap": "M", "nomcap": "Bellmunt del Priorat", "codimuni": "430234", "capprov": "N", "dataalta": "201707262100", "codiprov": "43", "codicomar": "29" }, "geometry": { "type": "Point", "coordinates": [ 0.765313, 41.163988 ] } },
{ "type": "Feature", "styles": { "radius": 6, "isCanvas": true, "fillColor": "#ffc500", "color": "#ffffff", "weight": 2, "fillOpacity": 0.900000, "opacity": 1, "tipus": "marker", "_dashArray": null }, "properties": { "tipuscap": "M", "nomcap": "Creixell", "codimuni": "430509", "capprov": "N", "dataalta": "201707262100", "codiprov": "43", "codicomar": "36" }, "geometry": { "type": "Point", "coordinates": [ 1.440627, 41.167739 ] } },
{ "type": "Feature", "styles": { "radius": 6, "isCanvas": true, "fillColor": "#ffc500", "color": "#ffffff", "weight": 2, "fillOpacity": 0.900000, "opacity": 1, "tipus": "marker", "_dashArray": null }, "properties": { "tipuscap": "M", "nomcap": "les Avellanes", "codimuni": "250371", "capprov": "N", "dataalta": "201707262100", "codiprov": "25", "codicomar": "23" }, "geometry": { "type": "Point", "coordinates": [ 0.7643, 41.90811 ] } },
{ "type": "Feature", "styles": { "radius": 6, "isCanvas": true, "fillColor": "#ffc500", "color": "#ffffff", "weight": 2, "fillOpacity": 0.900000, "opacity": 1, "tipus": "marker", "_dashArray": null }, "properties": { "tipuscap": "M", "nomcap": "el Pont de Claverol", "codimuni": "251615", "capprov": "N", "dataalta": "201707262100", "codiprov": "25", "codicomar": "25" }, "geometry": { "type": "Point", "coordinates": [ 0.971427, 42.244785 ] } },
{ "type": "Feature", "styles": { "radius": 6, "isCanvas": true, "fillColor": "#ffc500", "color": "#ffffff", "weight": 2, "fillOpacity": 0.900000, "opacity": 1, "tipus": "marker", "_dashArray": null }, "properties": { "tipuscap": "M", "nomcap": "Vilaür", "codimuni": "172229", "capprov": "N", "dataalta": "201707262100", "codiprov": "17", "codicomar": "02" }, "geometry": { "type": "Point", "coordinates": [ 2.953885, 42.143538 ] } },
{ "type": "Feature", "styles": { "radius": 6, "isCanvas": true, "fillColor": "#ffc500", "color": "#ffffff", "weight": 2, "fillOpacity": 0.900000, "opacity": 1, "tipus": "marker", "_dashArray": null }, "properties": { "tipuscap": "M", "nomcap": "la Joncosa del Montmell", "codimuni": "430901", "capprov": "N", "dataalta": "201707262100", "codiprov": "43", "codicomar": "12" }, "geometry": { "type": "Point", "coordinates": [ 1.453797, 41.315564 ] } },
{ "type": "Feature", "styles": { "radius": 6, "isCanvas": true, "fillColor": "#ffc500", "color": "#ffffff", "weight": 2, "fillOpacity": 0.900000, "opacity": 1, "tipus": "marker", "_dashArray": null }, "properties": { "tipuscap": "M", "nomcap": "Tiana", "codimuni": "082824", "capprov": "N", "dataalta": "201707262100", "codiprov": "08", "codicomar": "21" }, "geometry": { "type": "Point", "coordinates": [ 2.269019, 41.481728 ] } },
{ "type": "Feature", "styles": { "radius": 6, "isCanvas": true, "fillColor": "#ffc500", "color": "#ffffff", "weight": 2, "fillOpacity": 0.900000, "opacity": 1, "tipus": "marker", "_dashArray": null }, "properties": { "tipuscap": "M", "nomcap": "el Far d'Empordà", "codimuni": "170059", "capprov": "N", "dataalta": "201707262100", "codiprov": "17", "codicomar": "02" }, "geometry": { "type": "Point", "coordinates": [ 2.996372, 42.251947 ] } },
{ "type": "Feature", "styles": { "radius": 6, "isCanvas": true, "fillColor": "#ffc500", "color": "#ffffff", "weight": 2, "fillOpacity": 0.900000, "opacity": 1, "tipus": "marker", "_dashArray": null }, "properties": { "tipuscap": "M", "nomcap": "la Llacuna", "codimuni": "081043", "capprov": "N", "dataalta": "201707262100", "codiprov": "08", "codicomar": "06" }, "geometry": { "type": "Point", "coordinates": [ 1.532021, 41.47248 ] } },
{ "type": "Feature", "styles": { "radius": 6, "isCanvas": true, "fillColor": "#ffc500", "color": "#ffffff", "weight": 2, "fillOpacity": 0.900000, "opacity": 1, "tipus": "marker", "_dashArray": null }, "properties": { "tipuscap": "M", "nomcap": "Cadaqués", "codimuni": "170329", "capprov": "N", "dataalta": "201707262100", "codiprov": "17", "codicomar": "02" }, "geometry": { "type": "Point", "coordinates": [ 3.275849, 42.288252 ] } },
{ "type": "Feature", "styles": { "radius": 6, "isCanvas": true, "fillColor": "#ffc500", "color": "#ffffff", "weight": 2, "fillOpacity": 0.900000, "opacity": 1, "tipus": "marker", "_dashArray": null }, "properties": { "tipuscap": "M", "nomcap": "Lliçà d'Amunt", "codimuni": "081075", "capprov": "N", "dataalta": "201707262100", "codiprov": "08", "codicomar": "41" }, "geometry": { "type": "Point", "coordinates": [ 2.239433, 41.608467 ] } },
{ "type": "Feature", "styles": { "radius": 6, "isCanvas": true, "fillColor": "#ffc500", "color": "#ffffff", "weight": 2, "fillOpacity": 0.900000, "opacity": 1, "tipus": "marker", "_dashArray": null }, "properties": { "tipuscap": "M", "nomcap": "el Port de la Selva", "codimuni": "171404", "capprov": "N", "dataalta": "201707262100", "codiprov": "17", "codicomar": "02" }, "geometry": { "type": "Point", "coordinates": [ 3.204538, 42.338598 ] } },
{ "type": "Feature", "styles": { "radius": 6, "isCanvas": true, "fillColor": "#ffc500", "color": "#ffffff", "weight": 2, "fillOpacity": 0.900000, "opacity": 1, "tipus": "marker", "_dashArray": null }, "properties": { "tipuscap": "M", "nomcap": "Maçanet de la Selva", "codimuni": "171030", "capprov": "N", "dataalta": "201707262100", "codiprov": "17", "codicomar": "34" }, "geometry": { "type": "Point", "coordinates": [ 2.731326, 41.776371 ] } },
{ "type": "Feature", "styles": { "radius": 6, "isCanvas": true, "fillColor": "#ffc500", "color": "#ffffff", "weight": 2, "fillOpacity": 0.900000, "opacity": 1, "tipus": "marker", "_dashArray": null }, "properties": { "tipuscap": "M", "nomcap": "Riumors", "codimuni": "171518", "capprov": "N", "dataalta": "201707262100", "codiprov": "17", "codicomar": "02" }, "geometry": { "type": "Point", "coordinates": [ 3.043027, 42.22683 ] } },
{ "type": "Feature", "styles": { "radius": 6, "isCanvas": true, "fillColor": "#ffc500", "color": "#ffffff", "weight": 2, "fillOpacity": 0.900000, "opacity": 1, "tipus": "marker", "_dashArray": null }, "properties": { "tipuscap": "M", "nomcap": "Isona", "codimuni": "251155", "capprov": "N", "dataalta": "201707262100", "codiprov": "25", "codicomar": "25" }, "geometry": { "type": "Point", "coordinates": [ 1.043876, 42.116969 ] } },
{ "type": "Feature", "styles": { "radius": 6, "isCanvas": true, "fillColor": "#ffc500", "color": "#ffffff", "weight": 2, "fillOpacity": 0.900000, "opacity": 1, "tipus": "marker", "_dashArray": null }, "properties": { "tipuscap": "M", "nomcap": "Nalec", "codimuni": "251459", "capprov": "N", "dataalta": "201707262100", "codiprov": "25", "codicomar": "38" }, "geometry": { "type": "Point", "coordinates": [ 1.115202, 41.559826 ] } },
{ "type": "Feature", "styles": { "radius": 6, "isCanvas": true, "fillColor": "#ffc500", "color": "#ffffff", "weight": 2, "fillOpacity": 0.900000, "opacity": 1, "tipus": "marker", "_dashArray": null }, "properties": { "tipuscap": "M", "nomcap": "Figuerola del Camp", "codimuni": "430593", "capprov": "N", "dataalta": "201707262100", "codiprov": "43", "codicomar": "01" }, "geometry": { "type": "Point", "coordinates": [ 1.265317, 41.371915 ] } },
{ "type": "Feature", "styles": { "radius": 6, "isCanvas": true, "fillColor": "#ffc500", "color": "#ffffff", "weight": 2, "fillOpacity": 0.900000, "opacity": 1, "tipus": "marker", "_dashArray": null }, "properties": { "tipuscap": "M", "nomcap": "Borrassà", "codimuni": "170268", "capprov": "N", "dataalta": "201707262100", "codiprov": "17", "codicomar": "02" }, "geometry": { "type": "Point", "coordinates": [ 2.926167, 42.223059 ] } },
{ "type": "Feature", "styles": { "radius": 6, "isCanvas": true, "fillColor": "#ffc500", "color": "#ffffff", "weight": 2, "fillOpacity": 0.900000, "opacity": 1, "tipus": "marker", "_dashArray": null }, "properties": { "tipuscap": "M", "nomcap": "Torrefarrera", "codimuni": "252287", "capprov": "N", "dataalta": "201707262100", "codiprov": "25", "codicomar": "33" }, "geometry": { "type": "Point", "coordinates": [ 0.607078, 41.673084 ] } },
{ "type": "Feature", "styles": { "radius": 6, "isCanvas": true, "fillColor": "#ffc500", "color": "#ffffff", "weight": 2, "fillOpacity": 0.900000, "opacity": 1, "tipus": "marker", "_dashArray": null }, "properties": { "tipuscap": "M", "nomcap": "la Roca del Vallès", "codimuni": "081810", "capprov": "N", "dataalta": "201707262100", "codiprov": "08", "codicomar": "41" }, "geometry": { "type": "Point", "coordinates": [ 2.325764, 41.587569 ] } },
{ "type": "Feature", "styles": { "radius": 6, "isCanvas": true, "fillColor": "#ffc500", "color": "#ffffff", "weight": 2, "fillOpacity": 0.900000, "opacity": 1, "tipus": "marker", "_dashArray": null }, "properties": { "tipuscap": "M", "nomcap": "Esplugues de Llobregat", "codimuni": "080771", "capprov": "N", "dataalta": "201707262100", "codiprov": "08", "codicomar": "11" }, "geometry": { "type": "Point", "coordinates": [ 2.087992, 41.377698 ] } },
{ "type": "Feature", "styles": { "radius": 6, "isCanvas": true, "fillColor": "#ffc500", "color": "#ffffff", "weight": 2, "fillOpacity": 0.900000, "opacity": 1, "tipus": "marker", "_dashArray": null }, "properties": { "tipuscap": "M", "nomcap": "Vila-seca", "codimuni": "431711", "capprov": "N", "dataalta": "201707262100", "codiprov": "43", "codicomar": "36" }, "geometry": { "type": "Point", "coordinates": [ 1.144806, 41.110949 ] } },
{ "type": "Feature", "styles": { "radius": 6, "isCanvas": true, "fillColor": "#ffc500", "color": "#ffffff", "weight": 2, "fillOpacity": 0.900000, "opacity": 1, "tipus": "marker", "_dashArray": null }, "properties": { "tipuscap": "M", "nomcap": "Fondarella", "codimuni": "250931", "capprov": "N", "dataalta": "201707262100", "codiprov": "25", "codicomar": "27" }, "geometry": { "type": "Point", "coordinates": [ 0.873515, 41.634642 ] } },
{ "type": "Feature", "styles": { "radius": 6, "isCanvas": true, "fillColor": "#ffc500", "color": "#ffffff", "weight": 2, "fillOpacity": 0.900000, "opacity": 1, "tipus": "marker", "_dashArray": null }, "properties": { "tipuscap": "C", "nomcap": "Sabadell", "codimuni": "081878", "capprov": "N", "dataalta": "201707262100", "codiprov": "08", "codicomar": "40" }, "geometry": { "type": "Point", "coordinates": [ 2.108552, 41.546378 ] } },
{ "type": "Feature", "styles": { "radius": 6, "isCanvas": true, "fillColor": "#ffc500", "color": "#ffffff", "weight": 2, "fillOpacity": 0.900000, "opacity": 1, "tipus": "marker", "_dashArray": null }, "properties": { "tipuscap": "M", "nomcap": "Vallgorguina", "codimuni": "082943", "capprov": "N", "dataalta": "201707262100", "codiprov": "08", "codicomar": "41" }, "geometry": { "type": "Point", "coordinates": [ 2.511523, 41.64726 ] } },
{ "type": "Feature", "styles": { "radius": 6, "isCanvas": true, "fillColor": "#ffc500", "color": "#ffffff", "weight": 2, "fillOpacity": 0.900000, "opacity": 1, "tipus": "marker", "_dashArray": null }, "properties": { "tipuscap": "M", "nomcap": "Argentona", "codimuni": "080095", "capprov": "N", "dataalta": "201707262100", "codiprov": "08", "codicomar": "21" }, "geometry": { "type": "Point", "coordinates": [ 2.400516, 41.555644 ] } },
{ "type": "Feature", "styles": { "radius": 6, "isCanvas": true, "fillColor": "#ffc500", "color": "#ffffff", "weight": 2, "fillOpacity": 0.900000, "opacity": 1, "tipus": "marker", "_dashArray": null }, "properties": { "tipuscap": "M", "nomcap": "Corró d'Avall", "codimuni": "080863", "capprov": "N", "dataalta": "201707262100", "codiprov": "08", "codicomar": "41" }, "geometry": { "type": "Point", "coordinates": [ 2.297161, 41.636307 ] } },
{ "type": "Feature", "styles": { "radius": 6, "isCanvas": true, "fillColor": "#ffc500", "color": "#ffffff", "weight": 2, "fillOpacity": 0.900000, "opacity": 1, "tipus": "marker", "_dashArray": null }, "properties": { "tipuscap": "M", "nomcap": "la Riera de Gaià", "codimuni": "431264", "capprov": "N", "dataalta": "201707262100", "codiprov": "43", "codicomar": "36" }, "geometry": { "type": "Point", "coordinates": [ 1.361393, 41.16484 ] } },
{ "type": "Feature", "styles": { "radius": 6, "isCanvas": true, "fillColor": "#ffc500", "color": "#ffffff", "weight": 2, "fillOpacity": 0.900000, "opacity": 1, "tipus": "marker", "_dashArray": null }, "properties": { "tipuscap": "M", "nomcap": "Camprodon", "codimuni": "170391", "capprov": "N", "dataalta": "201707262100", "codiprov": "17", "codicomar": "31" }, "geometry": { "type": "Point", "coordinates": [ 2.365045, 42.311526 ] } },
{ "type": "Feature", "styles": { "radius": 6, "isCanvas": true, "fillColor": "#ffc500", "color": "#ffffff", "weight": 2, "fillOpacity": 0.900000, "opacity": 1, "tipus": "marker", "_dashArray": null }, "properties": { "tipuscap": "M", "nomcap": "Corbins", "codimuni": "250788", "capprov": "N", "dataalta": "201707262100", "codiprov": "25", "codicomar": "33" }, "geometry": { "type": "Point", "coordinates": [ 0.69291, 41.690651 ] } },
{ "type": "Feature", "styles": { "radius": 6, "isCanvas": true, "fillColor": "#ffc500", "color": "#ffffff", "weight": 2, "fillOpacity": 0.900000, "opacity": 1, "tipus": "marker", "_dashArray": null }, "properties": { "tipuscap": "M", "nomcap": "Vilagrassa", "codimuni": "252445", "capprov": "N", "dataalta": "201707262100", "codiprov": "25", "codicomar": "38" }, "geometry": { "type": "Point", "coordinates": [ 1.106432, 41.648243 ] } },
{ "type": "Feature", "styles": { "radius": 6, "isCanvas": true, "fillColor": "#ffc500", "color": "#ffffff", "weight": 2, "fillOpacity": 0.900000, "opacity": 1, "tipus": "marker", "_dashArray": null }, "properties": { "tipuscap": "M", "nomcap": "Seva", "codimuni": "082690", "capprov": "N", "dataalta": "201707262100", "codiprov": "08", "codicomar": "24" }, "geometry": { "type": "Point", "coordinates": [ 2.280296, 41.838635 ] } },
{ "type": "Feature", "styles": { "radius": 6, "isCanvas": true, "fillColor": "#ffc500", "color": "#ffffff", "weight": 2, "fillOpacity": 0.900000, "opacity": 1, "tipus": "marker", "_dashArray": null }, "properties": { "tipuscap": "M", "nomcap": "l'Arboç", "codimuni": "430167", "capprov": "N", "dataalta": "201707262100", "codiprov": "43", "codicomar": "12" }, "geometry": { "type": "Point", "coordinates": [ 1.603604, 41.267503 ] } },
{ "type": "Feature", "styles": { "radius": 6, "isCanvas": true, "fillColor": "#ffc500", "color": "#ffffff", "weight": 2, "fillOpacity": 0.900000, "opacity": 1, "tipus": "marker", "_dashArray": null }, "properties": { "tipuscap": "M", "nomcap": "Miravet", "codimuni": "430846", "capprov": "N", "dataalta": "201707262100", "codiprov": "43", "codicomar": "30" }, "geometry": { "type": "Point", "coordinates": [ 0.597513, 41.038139 ] } },
{ "type": "Feature", "styles": { "radius": 6, "isCanvas": true, "fillColor": "#ffc500", "color": "#ffffff", "weight": 2, "fillOpacity": 0.900000, "opacity": 1, "tipus": "marker", "_dashArray": null }, "properties": { "tipuscap": "M", "nomcap": "Masdenverge", "codimuni": "430786", "capprov": "N", "dataalta": "201707262100", "codiprov": "43", "codicomar": "22" }, "geometry": { "type": "Point", "coordinates": [ 0.531709, 40.715441 ] } },
{ "type": "Feature", "styles": { "radius": 6, "isCanvas": true, "fillColor": "#ffc500", "color": "#ffffff", "weight": 2, "fillOpacity": 0.900000, "opacity": 1, "tipus": "marker", "_dashArray": null }, "properties": { "tipuscap": "M", "nomcap": "els Torms", "codimuni": "252249", "capprov": "N", "dataalta": "201707262100", "codiprov": "25", "codicomar": "18" }, "geometry": { "type": "Point", "coordinates": [ 0.719021, 41.394428 ] } },
{ "type": "Feature", "styles": { "radius": 6, "isCanvas": true, "fillColor": "#ffc500", "color": "#ffffff", "weight": 2, "fillOpacity": 0.900000, "opacity": 1, "tipus": "marker", "_dashArray": null }, "properties": { "tipuscap": "M", "nomcap": "l'Ametlla de Mar", "codimuni": "430136", "capprov": "N", "dataalta": "201707262100", "codiprov": "43", "codicomar": "09" }, "geometry": { "type": "Point", "coordinates": [ 0.803502, 40.885248 ] } },
{ "type": "Feature", "styles": { "radius": 6, "isCanvas": true, "fillColor": "#ffc500", "color": "#ffffff", "weight": 2, "fillOpacity": 0.900000, "opacity": 1, "tipus": "marker", "_dashArray": null }, "properties": { "tipuscap": "M", "nomcap": "el Masnou", "codimuni": "081189", "capprov": "N", "dataalta": "201707262100", "codiprov": "08", "codicomar": "21" }, "geometry": { "type": "Point", "coordinates": [ 2.319018, 41.479162 ] } },
{ "type": "Feature", "styles": { "radius": 6, "isCanvas": true, "fillColor": "#ffc500", "color": "#ffffff", "weight": 2, "fillOpacity": 0.900000, "opacity": 1, "tipus": "marker", "_dashArray": null }, "properties": { "tipuscap": "M", "nomcap": "Roda de Ter", "codimuni": "081831", "capprov": "N", "dataalta": "201707262100", "codiprov": "08", "codicomar": "24" }, "geometry": { "type": "Point", "coordinates": [ 2.309492, 41.980806 ] } },
{ "type": "Feature", "styles": { "radius": 6, "isCanvas": true, "fillColor": "#ffc500", "color": "#ffffff", "weight": 2, "fillOpacity": 0.900000, "opacity": 1, "tipus": "marker", "_dashArray": null }, "properties": { "tipuscap": "M", "nomcap": "Ribes de Freser", "codimuni": "171450", "capprov": "N", "dataalta": "201707262100", "codiprov": "17", "codicomar": "31" }, "geometry": { "type": "Point", "coordinates": [ 2.167927, 42.306312 ] } },
{ "type": "Feature", "styles": { "radius": 6, "isCanvas": true, "fillColor": "#ffc500", "color": "#ffffff", "weight": 2, "fillOpacity": 0.900000, "opacity": 1, "tipus": "marker", "_dashArray": null }, "properties": { "tipuscap": "M", "nomcap": "Gimenells", "codimuni": "259123", "capprov": "N", "dataalta": "201707262100", "codiprov": "25", "codicomar": "33" }, "geometry": { "type": "Point", "coordinates": [ 0.389851, 41.652279 ] } },
{ "type": "Feature", "styles": { "radius": 6, "isCanvas": true, "fillColor": "#ffc500", "color": "#ffffff", "weight": 2, "fillOpacity": 0.900000, "opacity": 1, "tipus": "marker", "_dashArray": null }, "properties": { "tipuscap": "M", "nomcap": "Sant Quirze Safaja", "codimuni": "082397", "capprov": "N", "dataalta": "201707262100", "codiprov": "08", "codicomar": "42" }, "geometry": { "type": "Point", "coordinates": [ 2.15308, 41.727307 ] } },
{ "type": "Feature", "styles": { "radius": 6, "isCanvas": true, "fillColor": "#ffc500", "color": "#ffffff", "weight": 2, "fillOpacity": 0.900000, "opacity": 1, "tipus": "marker", "_dashArray": null }, "properties": { "tipuscap": "M", "nomcap": "Sant Bartomeu del Grau", "codimuni": "081995", "capprov": "N", "dataalta": "201707262100", "codiprov": "08", "codicomar": "24" }, "geometry": { "type": "Point", "coordinates": [ 2.177152, 41.980285 ] } },
{ "type": "Feature", "styles": { "radius": 6, "isCanvas": true, "fillColor": "#ffc500", "color": "#ffffff", "weight": 2, "fillOpacity": 0.900000, "opacity": 1, "tipus": "marker", "_dashArray": null }, "properties": { "tipuscap": "M", "nomcap": "Montcada", "codimuni": "081252", "capprov": "N", "dataalta": "201707262100", "codiprov": "08", "codicomar": "40" }, "geometry": { "type": "Point", "coordinates": [ 2.18777, 41.485796 ] } },
{ "type": "Feature", "styles": { "radius": 6, "isCanvas": true, "fillColor": "#ffc500", "color": "#ffffff", "weight": 2, "fillOpacity": 0.900000, "opacity": 1, "tipus": "marker", "_dashArray": null }, "properties": { "tipuscap": "M", "nomcap": "Bonastre", "codimuni": "430304", "capprov": "N", "dataalta": "201707262100", "codiprov": "43", "codicomar": "12" }, "geometry": { "type": "Point", "coordinates": [ 1.439914, 41.220614 ] } },
{ "type": "Feature", "styles": { "radius": 6, "isCanvas": true, "fillColor": "#ffc500", "color": "#ffffff", "weight": 2, "fillOpacity": 0.900000, "opacity": 1, "tipus": "marker", "_dashArray": null }, "properties": { "tipuscap": "M", "nomcap": "Bolvir", "codimuni": "170242", "capprov": "N", "dataalta": "201707262100", "codiprov": "17", "codicomar": "15" }, "geometry": { "type": "Point", "coordinates": [ 1.879864, 42.41848 ] } },
{ "type": "Feature", "styles": { "radius": 6, "isCanvas": true, "fillColor": "#ffc500", "color": "#ffffff", "weight": 2, "fillOpacity": 0.900000, "opacity": 1, "tipus": "marker", "_dashArray": null }, "properties": { "tipuscap": "M", "nomcap": "l'Albiol", "codimuni": "430038", "capprov": "N", "dataalta": "201707262100", "codiprov": "43", "codicomar": "08" }, "geometry": { "type": "Point", "coordinates": [ 1.08963, 41.2521 ] } },
{ "type": "Feature", "styles": { "radius": 6, "isCanvas": true, "fillColor": "#ffc500", "color": "#ffffff", "weight": 2, "fillOpacity": 0.900000, "opacity": 1, "tipus": "marker", "_dashArray": null }, "properties": { "tipuscap": "M", "nomcap": "Santa Cristina d'Aro", "codimuni": "171812", "capprov": "N", "dataalta": "201707262100", "codiprov": "17", "codicomar": "10" }, "geometry": { "type": "Point", "coordinates": [ 2.996898, 41.812073 ] } },
{ "type": "Feature", "styles": { "radius": 6, "isCanvas": true, "fillColor": "#ffc500", "color": "#ffffff", "weight": 2, "fillOpacity": 0.900000, "opacity": 1, "tipus": "marker", "_dashArray": null }, "properties": { "tipuscap": "M", "nomcap": "el Pla de Sant Tirs", "codimuni": "251850", "capprov": "N", "dataalta": "201707262100", "codiprov": "25", "codicomar": "04" }, "geometry": { "type": "Point", "coordinates": [ 1.382781, 42.312688 ] } },
{ "type": "Feature", "styles": { "radius": 6, "isCanvas": true, "fillColor": "#ffc500", "color": "#ffffff", "weight": 2, "fillOpacity": 0.900000, "opacity": 1, "tipus": "marker", "_dashArray": null }, "properties": { "tipuscap": "M", "nomcap": "Vilaverd", "codimuni": "431726", "capprov": "N", "dataalta": "201707262100", "codiprov": "43", "codicomar": "16" }, "geometry": { "type": "Point", "coordinates": [ 1.177353, 41.33687 ] } },
{ "type": "Feature", "styles": { "radius": 6, "isCanvas": true, "fillColor": "#ffc500", "color": "#ffffff", "weight": 2, "fillOpacity": 0.900000, "opacity": 1, "tipus": "marker", "_dashArray": null }, "properties": { "tipuscap": "M", "nomcap": "Perafita", "codimuni": "081607", "capprov": "N", "dataalta": "201707262100", "codiprov": "08", "codicomar": "24" }, "geometry": { "type": "Point", "coordinates": [ 2.106999, 42.042267 ] } },
{ "type": "Feature", "styles": { "radius": 6, "isCanvas": true, "fillColor": "#ffc500", "color": "#ffffff", "weight": 2, "fillOpacity": 0.900000, "opacity": 1, "tipus": "marker", "_dashArray": null }, "properties": { "tipuscap": "M", "nomcap": "Besalú", "codimuni": "170195", "capprov": "N", "dataalta": "201707262100", "codiprov": "17", "codicomar": "19" }, "geometry": { "type": "Point", "coordinates": [ 2.699327, 42.198886 ] } },
{ "type": "Feature", "styles": { "radius": 6, "isCanvas": true, "fillColor": "#ffc500", "color": "#ffffff", "weight": 2, "fillOpacity": 0.900000, "opacity": 1, "tipus": "marker", "_dashArray": null }, "properties": { "tipuscap": "M", "nomcap": "Castelló de Farfanya", "codimuni": "250693", "capprov": "N", "dataalta": "201707262100", "codiprov": "25", "codicomar": "23" }, "geometry": { "type": "Point", "coordinates": [ 0.727347, 41.820267 ] } },
{ "type": "Feature", "styles": { "radius": 6, "isCanvas": true, "fillColor": "#ffc500", "color": "#ffffff", "weight": 2, "fillOpacity": 0.900000, "opacity": 1, "tipus": "marker", "_dashArray": null }, "properties": { "tipuscap": "M", "nomcap": "Cambrils", "codimuni": "251484", "capprov": "N", "dataalta": "201707262100", "codiprov": "25", "codicomar": "35" }, "geometry": { "type": "Point", "coordinates": [ 1.387099, 42.133623 ] } },
{ "type": "Feature", "styles": { "radius": 6, "isCanvas": true, "fillColor": "#ffc500", "color": "#ffffff", "weight": 2, "fillOpacity": 0.900000, "opacity": 1, "tipus": "marker", "_dashArray": null }, "properties": { "tipuscap": "M", "nomcap": "Tarroja de Segarra", "codimuni": "252192", "capprov": "N", "dataalta": "201707262100", "codiprov": "25", "codicomar": "32" }, "geometry": { "type": "Point", "coordinates": [ 1.276542, 41.730486 ] } },
{ "type": "Feature", "styles": { "radius": 6, "isCanvas": true, "fillColor": "#ffc500", "color": "#ffffff", "weight": 2, "fillOpacity": 0.900000, "opacity": 1, "tipus": "marker", "_dashArray": null }, "properties": { "tipuscap": "M", "nomcap": "Lles de Cerdanya", "codimuni": "251272", "capprov": "N", "dataalta": "201707262100", "codiprov": "25", "codicomar": "15" }, "geometry": { "type": "Point", "coordinates": [ 1.687062, 42.390292 ] } },
{ "type": "Feature", "styles": { "radius": 6, "isCanvas": true, "fillColor": "#ffc500", "color": "#ffffff", "weight": 2, "fillOpacity": 0.900000, "opacity": 1, "tipus": "marker", "_dashArray": null }, "properties": { "tipuscap": "M", "nomcap": "Sant Llorenç de Morunys", "codimuni": "251930", "capprov": "N", "dataalta": "201707262100", "codiprov": "25", "codicomar": "35" }, "geometry": { "type": "Point", "coordinates": [ 1.590911, 42.137246 ] } },
{ "type": "Feature", "styles": { "radius": 6, "isCanvas": true, "fillColor": "#ffc500", "color": "#ffffff", "weight": 2, "fillOpacity": 0.900000, "opacity": 1, "tipus": "marker", "_dashArray": null }, "properties": { "tipuscap": "M", "nomcap": "Fulleda", "codimuni": "250978", "capprov": "N", "dataalta": "201707262100", "codiprov": "25", "codicomar": "18" }, "geometry": { "type": "Point", "coordinates": [ 1.024312, 41.463053 ] } },
{ "type": "Feature", "styles": { "radius": 6, "isCanvas": true, "fillColor": "#ffc500", "color": "#ffffff", "weight": 2, "fillOpacity": 0.900000, "opacity": 1, "tipus": "marker", "_dashArray": null }, "properties": { "tipuscap": "M", "nomcap": "Olvan", "codimuni": "081445", "capprov": "N", "dataalta": "201707262100", "codiprov": "08", "codicomar": "14" }, "geometry": { "type": "Point", "coordinates": [ 1.906974, 42.056998 ] } },
{ "type": "Feature", "styles": { "radius": 6, "isCanvas": true, "fillColor": "#ffc500", "color": "#ffffff", "weight": 2, "fillOpacity": 0.900000, "opacity": 1, "tipus": "marker", "_dashArray": null }, "properties": { "tipuscap": "M", "nomcap": "l'Aleixar", "codimuni": "430075", "capprov": "N", "dataalta": "201707262100", "codiprov": "43", "codicomar": "08" }, "geometry": { "type": "Point", "coordinates": [ 1.046141, 41.20164 ] } },
{ "type": "Feature", "styles": { "radius": 6, "isCanvas": true, "fillColor": "#ffc500", "color": "#ffffff", "weight": 2, "fillOpacity": 0.900000, "opacity": 1, "tipus": "marker", "_dashArray": null }, "properties": { "tipuscap": "M", "nomcap": "Sant Climenç", "codimuni": "251667", "capprov": "N", "dataalta": "201707262100", "codiprov": "25", "codicomar": "35" }, "geometry": { "type": "Point", "coordinates": [ 1.418757, 41.950156 ] } },
{ "type": "Feature", "styles": { "radius": 6, "isCanvas": true, "fillColor": "#ffc500", "color": "#ffffff", "weight": 2, "fillOpacity": 0.900000, "opacity": 1, "tipus": "marker", "_dashArray": null }, "properties": { "tipuscap": "M", "nomcap": "els Omells de na Gaia", "codimuni": "251543", "capprov": "N", "dataalta": "201707262100", "codiprov": "25", "codicomar": "38" }, "geometry": { "type": "Point", "coordinates": [ 1.075105, 41.50068 ] } },
{ "type": "Feature", "styles": { "radius": 6, "isCanvas": true, "fillColor": "#ffc500", "color": "#ffffff", "weight": 2, "fillOpacity": 0.900000, "opacity": 1, "tipus": "marker", "_dashArray": null }, "properties": { "tipuscap": "M", "nomcap": "Arenys de Mar", "codimuni": "080060", "capprov": "N", "dataalta": "201707262100", "codiprov": "08", "codicomar": "21" }, "geometry": { "type": "Point", "coordinates": [ 2.551624, 41.579534 ] } },
{ "type": "Feature", "styles": { "radius": 6, "isCanvas": true, "fillColor": "#ffc500", "color": "#ffffff", "weight": 2, "fillOpacity": 0.900000, "opacity": 1, "tipus": "marker", "_dashArray": null }, "properties": { "tipuscap": "M", "nomcap": "Sant Vicenç de Castellet", "codimuni": "082628", "capprov": "N", "dataalta": "201707262100", "codiprov": "08", "codicomar": "07" }, "geometry": { "type": "Point", "coordinates": [ 1.863616, 41.665552 ] } },
{ "type": "Feature", "styles": { "radius": 6, "isCanvas": true, "fillColor": "#ffc500", "color": "#ffffff", "weight": 2, "fillOpacity": 0.900000, "opacity": 1, "tipus": "marker", "_dashArray": null }, "properties": { "tipuscap": "M", "nomcap": "Mont-ras", "codimuni": "171100", "capprov": "N", "dataalta": "201707262100", "codiprov": "17", "codicomar": "10" }, "geometry": { "type": "Point", "coordinates": [ 3.144717, 41.907724 ] } },
{ "type": "Feature", "styles": { "radius": 6, "isCanvas": true, "fillColor": "#ffc500", "color": "#ffffff", "weight": 2, "fillOpacity": 0.900000, "opacity": 1, "tipus": "marker", "_dashArray": null }, "properties": { "tipuscap": "M", "nomcap": "Montmeló", "codimuni": "081350", "capprov": "N", "dataalta": "201707262100", "codiprov": "08", "codicomar": "41" }, "geometry": { "type": "Point", "coordinates": [ 2.247899, 41.551517 ] } },
{ "type": "Feature", "styles": { "radius": 6, "isCanvas": true, "fillColor": "#ffc500", "color": "#ffffff", "weight": 2, "fillOpacity": 0.900000, "opacity": 1, "tipus": "marker", "_dashArray": null }, "properties": { "tipuscap": "M", "nomcap": "Sant Vicenç dels Horts", "codimuni": "082634", "capprov": "N", "dataalta": "201707262100", "codiprov": "08", "codicomar": "11" }, "geometry": { "type": "Point", "coordinates": [ 2.009713, 41.393337 ] } },
{ "type": "Feature", "styles": { "radius": 6, "isCanvas": true, "fillColor": "#ffc500", "color": "#ffffff", "weight": 2, "fillOpacity": 0.900000, "opacity": 1, "tipus": "marker", "_dashArray": null }, "properties": { "tipuscap": "M", "nomcap": "Can Branques", "codimuni": "081509", "capprov": "N", "dataalta": "201707262100", "codiprov": "08", "codicomar": "24" }, "geometry": { "type": "Point", "coordinates": [ 2.239283, 42.058224 ] } },
{ "type": "Feature", "styles": { "radius": 6, "isCanvas": true, "fillColor": "#ffc500", "color": "#ffffff", "weight": 2, "fillOpacity": 0.900000, "opacity": 1, "tipus": "marker", "_dashArray": null }, "properties": { "tipuscap": "M", "nomcap": "la Riba", "codimuni": "431248", "capprov": "N", "dataalta": "201707262100", "codiprov": "43", "codicomar": "01" }, "geometry": { "type": "Point", "coordinates": [ 1.177776, 41.318337 ] } },
{ "type": "Feature", "styles": { "radius": 6, "isCanvas": true, "fillColor": "#ffc500", "color": "#ffffff", "weight": 2, "fillOpacity": 0.900000, "opacity": 1, "tipus": "marker", "_dashArray": null }, "properties": { "tipuscap": "M", "nomcap": "Riudecols", "codimuni": "431286", "capprov": "N", "dataalta": "201707262100", "codiprov": "43", "codicomar": "08" }, "geometry": { "type": "Point", "coordinates": [ 0.976254, 41.168862 ] } },
{ "type": "Feature", "styles": { "radius": 6, "isCanvas": true, "fillColor": "#ffc500", "color": "#ffffff", "weight": 2, "fillOpacity": 0.900000, "opacity": 1, "tipus": "marker", "_dashArray": null }, "properties": { "tipuscap": "M", "nomcap": "Senan", "codimuni": "431460", "capprov": "N", "dataalta": "201707262100", "codiprov": "43", "codicomar": "16" }, "geometry": { "type": "Point", "coordinates": [ 1.088272, 41.46993 ] } },
{ "type": "Feature", "styles": { "radius": 6, "isCanvas": true, "fillColor": "#ffc500", "color": "#ffffff", "weight": 2, "fillOpacity": 0.900000, "opacity": 1, "tipus": "marker", "_dashArray": null }, "properties": { "tipuscap": "M", "nomcap": "Torelló", "codimuni": "082858", "capprov": "N", "dataalta": "201707262100", "codiprov": "08", "codicomar": "24" }, "geometry": { "type": "Point", "coordinates": [ 2.260585, 42.047132 ] } },
{ "type": "Feature", "styles": { "radius": 6, "isCanvas": true, "fillColor": "#ffc500", "color": "#ffffff", "weight": 2, "fillOpacity": 0.900000, "opacity": 1, "tipus": "marker", "_dashArray": null }, "properties": { "tipuscap": "M", "nomcap": "Carme", "codimuni": "080484", "capprov": "N", "dataalta": "201707262100", "codiprov": "08", "codicomar": "06" }, "geometry": { "type": "Point", "coordinates": [ 1.623045, 41.530898 ] } },
{ "type": "Feature", "styles": { "radius": 6, "isCanvas": true, "fillColor": "#ffc500", "color": "#ffffff", "weight": 2, "fillOpacity": 0.900000, "opacity": 1, "tipus": "marker", "_dashArray": null }, "properties": { "tipuscap": "M", "nomcap": "Anserall", "codimuni": "252398", "capprov": "N", "dataalta": "201707262100", "codiprov": "25", "codicomar": "04" }, "geometry": { "type": "Point", "coordinates": [ 1.456738, 42.379083 ] } },
{ "type": "Feature", "styles": { "radius": 6, "isCanvas": true, "fillColor": "#ffc500", "color": "#ffffff", "weight": 2, "fillOpacity": 0.900000, "opacity": 1, "tipus": "marker", "_dashArray": null }, "properties": { "tipuscap": "M", "nomcap": "Mas de Barberans", "codimuni": "430770", "capprov": "N", "dataalta": "201707262100", "codiprov": "43", "codicomar": "22" }, "geometry": { "type": "Point", "coordinates": [ 0.373878, 40.735667 ] } },
{ "type": "Feature", "styles": { "radius": 6, "isCanvas": true, "fillColor": "#ffc500", "color": "#ffffff", "weight": 2, "fillOpacity": 0.900000, "opacity": 1, "tipus": "marker", "_dashArray": null }, "properties": { "tipuscap": "M", "nomcap": "Santa Susanna", "codimuni": "082613", "capprov": "N", "dataalta": "201707262100", "codiprov": "08", "codicomar": "21" }, "geometry": { "type": "Point", "coordinates": [ 2.707069, 41.635504 ] } },
{ "type": "Feature", "styles": { "radius": 6, "isCanvas": true, "fillColor": "#ffc500", "color": "#ffffff", "weight": 2, "fillOpacity": 0.900000, "opacity": 1, "tipus": "marker", "_dashArray": null }, "properties": { "tipuscap": "M", "nomcap": "Arnes", "codimuni": "430189", "capprov": "N", "dataalta": "201707262100", "codiprov": "43", "codicomar": "37" }, "geometry": { "type": "Point", "coordinates": [ 0.26052, 40.910153 ] } },
{ "type": "Feature", "styles": { "radius": 6, "isCanvas": true, "fillColor": "#ffc500", "color": "#ffffff", "weight": 2, "fillOpacity": 0.900000, "opacity": 1, "tipus": "marker", "_dashArray": null }, "properties": { "tipuscap": "M", "nomcap": "els Hostalets de Pierola", "codimuni": "081629", "capprov": "N", "dataalta": "201707262100", "codiprov": "08", "codicomar": "06" }, "geometry": { "type": "Point", "coordinates": [ 1.770752, 41.533798 ] } },
{ "type": "Feature", "styles": { "radius": 6, "isCanvas": true, "fillColor": "#ffc500", "color": "#ffffff", "weight": 2, "fillOpacity": 0.900000, "opacity": 1, "tipus": "marker", "_dashArray": null }, "properties": { "tipuscap": "M", "nomcap": "Santa Maria de Miralles", "codimuni": "082573", "capprov": "N", "dataalta": "201707262100", "codiprov": "08", "codicomar": "06" }, "geometry": { "type": "Point", "coordinates": [ 1.525444, 41.518035 ] } },
{ "type": "Feature", "styles": { "radius": 6, "isCanvas": true, "fillColor": "#ffc500", "color": "#ffffff", "weight": 2, "fillOpacity": 0.900000, "opacity": 1, "tipus": "marker", "_dashArray": null }, "properties": { "tipuscap": "M", "nomcap": "Preixens", "codimuni": "251771", "capprov": "N", "dataalta": "201707262100", "codiprov": "25", "codicomar": "23" }, "geometry": { "type": "Point", "coordinates": [ 1.050887, 41.79405 ] } },
{ "type": "Feature", "styles": { "radius": 6, "isCanvas": true, "fillColor": "#ffc500", "color": "#ffffff", "weight": 2, "fillOpacity": 0.900000, "opacity": 1, "tipus": "marker", "_dashArray": null }, "properties": { "tipuscap": "M", "nomcap": "Viladamat", "codimuni": "172174", "capprov": "N", "dataalta": "201707262100", "codiprov": "17", "codicomar": "02" }, "geometry": { "type": "Point", "coordinates": [ 3.073817, 42.132751 ] } },
{ "type": "Feature", "styles": { "radius": 6, "isCanvas": true, "fillColor": "#ffc500", "color": "#ffffff", "weight": 2, "fillOpacity": 0.900000, "opacity": 1, "tipus": "marker", "_dashArray": null }, "properties": { "tipuscap": "M", "nomcap": "Sant Antolí i Vilanova", "codimuni": "259059", "capprov": "N", "dataalta": "201707262100", "codiprov": "25", "codicomar": "32" }, "geometry": { "type": "Point", "coordinates": [ 1.341908, 41.627717 ] } },
{ "type": "Feature", "styles": { "radius": 6, "isCanvas": true, "fillColor": "#ffc500", "color": "#ffffff", "weight": 2, "fillOpacity": 0.900000, "opacity": 1, "tipus": "marker", "_dashArray": null }, "properties": { "tipuscap": "M", "nomcap": "la Masó", "codimuni": "430803", "capprov": "N", "dataalta": "201707262100", "codiprov": "43", "codicomar": "01" }, "geometry": { "type": "Point", "coordinates": [ 1.222709, 41.234806 ] } },
{ "type": "Feature", "styles": { "radius": 6, "isCanvas": true, "fillColor": "#ffc500", "color": "#ffffff", "weight": 2, "fillOpacity": 0.900000, "opacity": 1, "tipus": "marker", "_dashArray": null }, "properties": { "tipuscap": "M", "nomcap": "Planoles", "codimuni": "171349", "capprov": "N", "dataalta": "201707262100", "codiprov": "17", "codicomar": "31" }, "geometry": { "type": "Point", "coordinates": [ 2.10361, 42.316347 ] } },
{ "type": "Feature", "styles": { "radius": 6, "isCanvas": true, "fillColor": "#ffc500", "color": "#ffffff", "weight": 2, "fillOpacity": 0.900000, "opacity": 1, "tipus": "marker", "_dashArray": null }, "properties": { "tipuscap": "M", "nomcap": "Torres de Segre", "codimuni": "252326", "capprov": "N", "dataalta": "201707262100", "codiprov": "25", "codicomar": "33" }, "geometry": { "type": "Point", "coordinates": [ 0.512601, 41.53517 ] } },
{ "type": "Feature", "styles": { "radius": 6, "isCanvas": true, "fillColor": "#ffc500", "color": "#ffffff", "weight": 2, "fillOpacity": 0.900000, "opacity": 1, "tipus": "marker", "_dashArray": null }, "properties": { "tipuscap": "M", "nomcap": "Siurana", "codimuni": "170524", "capprov": "N", "dataalta": "201707262100", "codiprov": "17", "codicomar": "02" }, "geometry": { "type": "Point", "coordinates": [ 2.994496, 42.209347 ] } },
{ "type": "Feature", "styles": { "radius": 6, "isCanvas": true, "fillColor": "#ffc500", "color": "#ffffff", "weight": 2, "fillOpacity": 0.900000, "opacity": 1, "tipus": "marker", "_dashArray": null }, "properties": { "tipuscap": "M", "nomcap": "Alfés", "codimuni": "250143", "capprov": "N", "dataalta": "201707262100", "codiprov": "25", "codicomar": "33" }, "geometry": { "type": "Point", "coordinates": [ 0.619339, 41.521418 ] } },
{ "type": "Feature", "styles": { "radius": 6, "isCanvas": true, "fillColor": "#ffc500", "color": "#ffffff", "weight": 2, "fillOpacity": 0.900000, "opacity": 1, "tipus": "marker", "_dashArray": null }, "properties": { "tipuscap": "M", "nomcap": "Vilanova de Bellpuig", "codimuni": "252483", "capprov": "N", "dataalta": "201707262100", "codiprov": "25", "codicomar": "27" }, "geometry": { "type": "Point", "coordinates": [ 0.961223, 41.614793 ] } },
{ "type": "Feature", "styles": { "radius": 6, "isCanvas": true, "fillColor": "#ffc500", "color": "#ffffff", "weight": 2, "fillOpacity": 0.900000, "opacity": 1, "tipus": "marker", "_dashArray": null }, "properties": { "tipuscap": "M", "nomcap": "Forès", "codimuni": "430614", "capprov": "N", "dataalta": "201707262100", "codiprov": "43", "codicomar": "16" }, "geometry": { "type": "Point", "coordinates": [ 1.235491, 41.493365 ] } },
{ "type": "Feature", "styles": { "radius": 6, "isCanvas": true, "fillColor": "#ffc500", "color": "#ffffff", "weight": 2, "fillOpacity": 0.900000, "opacity": 1, "tipus": "marker", "_dashArray": null }, "properties": { "tipuscap": "M", "nomcap": "Juïnyà", "codimuni": "171621", "capprov": "N", "dataalta": "201707262100", "codiprov": "17", "codicomar": "19" }, "geometry": { "type": "Point", "coordinates": [ 2.714342, 42.194538 ] } },
{ "type": "Feature", "styles": { "radius": 6, "isCanvas": true, "fillColor": "#ffc500", "color": "#ffffff", "weight": 2, "fillOpacity": 0.900000, "opacity": 1, "tipus": "marker", "_dashArray": null }, "properties": { "tipuscap": "M", "nomcap": "Masllorenç", "codimuni": "430799", "capprov": "N", "dataalta": "201707262100", "codiprov": "43", "codicomar": "12" }, "geometry": { "type": "Point", "coordinates": [ 1.415352, 41.269625 ] } },
{ "type": "Feature", "styles": { "radius": 6, "isCanvas": true, "fillColor": "#ffc500", "color": "#ffffff", "weight": 2, "fillOpacity": 0.900000, "opacity": 1, "tipus": "marker", "_dashArray": null }, "properties": { "tipuscap": "M", "nomcap": "Vilassar de Mar", "codimuni": "082191", "capprov": "N", "dataalta": "201707262100", "codiprov": "08", "codicomar": "21" }, "geometry": { "type": "Point", "coordinates": [ 2.392487, 41.502389 ] } },
{ "type": "Feature", "styles": { "radius": 6, "isCanvas": true, "fillColor": "#ffc500", "color": "#ffffff", "weight": 2, "fillOpacity": 0.900000, "opacity": 1, "tipus": "marker", "_dashArray": null }, "properties": { "tipuscap": "M", "nomcap": "Bonmatí", "codimuni": "179032", "capprov": "N", "dataalta": "201707262100", "codiprov": "17", "codicomar": "34" }, "geometry": { "type": "Point", "coordinates": [ 2.669926, 41.968193 ] } },
{ "type": "Feature", "styles": { "radius": 6, "isCanvas": true, "fillColor": "#ffc500", "color": "#ffffff", "weight": 2, "fillOpacity": 0.900000, "opacity": 1, "tipus": "marker", "_dashArray": null }, "properties": { "tipuscap": "M", "nomcap": "Aitona", "codimuni": "250387", "capprov": "N", "dataalta": "201707262100", "codiprov": "25", "codicomar": "33" }, "geometry": { "type": "Point", "coordinates": [ 0.458983, 41.49461 ] } },
{ "type": "Feature", "styles": { "radius": 6, "isCanvas": true, "fillColor": "#ffc500", "color": "#ffffff", "weight": 2, "fillOpacity": 0.900000, "opacity": 1, "tipus": "marker", "_dashArray": null }, "properties": { "tipuscap": "M", "nomcap": "Savallà del Comtat", "codimuni": "431439", "capprov": "N", "dataalta": "201707262100", "codiprov": "43", "codicomar": "16" }, "geometry": { "type": "Point", "coordinates": [ 1.299624, 41.543128 ] } },
{ "type": "Feature", "styles": { "radius": 6, "isCanvas": true, "fillColor": "#ffc500", "color": "#ffffff", "weight": 2, "fillOpacity": 0.900000, "opacity": 1, "tipus": "marker", "_dashArray": null }, "properties": { "tipuscap": "M", "nomcap": "Mont-ral", "codimuni": "430918", "capprov": "N", "dataalta": "201707262100", "codiprov": "43", "codicomar": "01" }, "geometry": { "type": "Point", "coordinates": [ 1.096975, 41.28691 ] } },
{ "type": "Feature", "styles": { "radius": 6, "isCanvas": true, "fillColor": "#ffc500", "color": "#ffffff", "weight": 2, "fillOpacity": 0.900000, "opacity": 1, "tipus": "marker", "_dashArray": null }, "properties": { "tipuscap": "M", "nomcap": "Querol", "codimuni": "431205", "capprov": "N", "dataalta": "201707262100", "codiprov": "43", "codicomar": "01" }, "geometry": { "type": "Point", "coordinates": [ 1.397737, 41.423311 ] } },
{ "type": "Feature", "styles": { "radius": 6, "isCanvas": true, "fillColor": "#ffc500", "color": "#ffffff", "weight": 2, "fillOpacity": 0.900000, "opacity": 1, "tipus": "marker", "_dashArray": null }, "properties": { "tipuscap": "M", "nomcap": "els Alamús", "codimuni": "250045", "capprov": "N", "dataalta": "201707262100", "codiprov": "25", "codicomar": "33" }, "geometry": { "type": "Point", "coordinates": [ 0.738551, 41.615707 ] } },
{ "type": "Feature", "styles": { "radius": 6, "isCanvas": true, "fillColor": "#ffc500", "color": "#ffffff", "weight": 2, "fillOpacity": 0.900000, "opacity": 1, "tipus": "marker", "_dashArray": null }, "properties": { "tipuscap": "M", "nomcap": "les Borges del Camp", "codimuni": "430311", "capprov": "N", "dataalta": "201707262100", "codiprov": "43", "codicomar": "08" }, "geometry": { "type": "Point", "coordinates": [ 1.019587, 41.17203 ] } },
{ "type": "Feature", "styles": { "radius": 6, "isCanvas": true, "fillColor": "#ffc500", "color": "#ffffff", "weight": 2, "fillOpacity": 0.900000, "opacity": 1, "tipus": "marker", "_dashArray": null }, "properties": { "tipuscap": "M", "nomcap": "Aldover", "codimuni": "430069", "capprov": "N", "dataalta": "201707262100", "codiprov": "43", "codicomar": "09" }, "geometry": { "type": "Point", "coordinates": [ 0.500004, 40.879792 ] } },
{ "type": "Feature", "styles": { "radius": 6, "isCanvas": true, "fillColor": "#ffc500", "color": "#ffffff", "weight": 2, "fillOpacity": 0.900000, "opacity": 1, "tipus": "marker", "_dashArray": null }, "properties": { "tipuscap": "M", "nomcap": "Penelles", "codimuni": "251641", "capprov": "N", "dataalta": "201707262100", "codiprov": "25", "codicomar": "23" }, "geometry": { "type": "Point", "coordinates": [ 0.965598, 41.757972 ] } },
{ "type": "Feature", "styles": { "radius": 6, "isCanvas": true, "fillColor": "#ffc500", "color": "#ffffff", "weight": 2, "fillOpacity": 0.900000, "opacity": 1, "tipus": "marker", "_dashArray": null }, "properties": { "tipuscap": "M", "nomcap": "Nulles", "codimuni": "430982", "capprov": "N", "dataalta": "201707262100", "codiprov": "43", "codicomar": "01" }, "geometry": { "type": "Point", "coordinates": [ 1.295179, 41.249492 ] } },
{ "type": "Feature", "styles": { "radius": 6, "isCanvas": true, "fillColor": "#ffc500", "color": "#ffffff", "weight": 2, "fillOpacity": 0.900000, "opacity": 1, "tipus": "marker", "_dashArray": null }, "properties": { "tipuscap": "M", "nomcap": "Rubió", "codimuni": "081859", "capprov": "N", "dataalta": "201707262100", "codiprov": "08", "codicomar": "06" }, "geometry": { "type": "Point", "coordinates": [ 1.570184, 41.644644 ] } },
{ "type": "Feature", "styles": { "radius": 6, "isCanvas": true, "fillColor": "#ffc500", "color": "#ffffff", "weight": 2, "fillOpacity": 0.900000, "opacity": 1, "tipus": "marker", "_dashArray": null }, "properties": { "tipuscap": "M", "nomcap": "Sant Sadurní de l'Heura", "codimuni": "179011", "capprov": "N", "dataalta": "201707262100", "codiprov": "17", "codicomar": "10" }, "geometry": { "type": "Point", "coordinates": [ 2.990944, 41.956416 ] } },
{ "type": "Feature", "styles": { "radius": 6, "isCanvas": true, "fillColor": "#ffc500", "color": "#ffffff", "weight": 2, "fillOpacity": 0.900000, "opacity": 1, "tipus": "marker", "_dashArray": null }, "properties": { "tipuscap": "M", "nomcap": "Maià de Montcal", "codimuni": "170985", "capprov": "N", "dataalta": "201707262100", "codiprov": "17", "codicomar": "19" }, "geometry": { "type": "Point", "coordinates": [ 2.742741, 42.222111 ] } },
{ "type": "Feature", "styles": { "radius": 6, "isCanvas": true, "fillColor": "#ffc500", "color": "#ffffff", "weight": 2, "fillOpacity": 0.900000, "opacity": 1, "tipus": "marker", "_dashArray": null }, "properties": { "tipuscap": "M", "nomcap": "Cabra del Camp", "codimuni": "430363", "capprov": "N", "dataalta": "201707262100", "codiprov": "43", "codicomar": "01" }, "geometry": { "type": "Point", "coordinates": [ 1.276657, 41.395279 ] } },
{ "type": "Feature", "styles": { "radius": 6, "isCanvas": true, "fillColor": "#ffc500", "color": "#ffffff", "weight": 2, "fillOpacity": 0.900000, "opacity": 1, "tipus": "marker", "_dashArray": null }, "properties": { "tipuscap": "C", "nomcap": "Reus", "codimuni": "431233", "capprov": "N", "dataalta": "201707262100", "codiprov": "43", "codicomar": "08" }, "geometry": { "type": "Point", "coordinates": [ 1.108492, 41.155016 ] } },
{ "type": "Feature", "styles": { "radius": 6, "isCanvas": true, "fillColor": "#ffc500", "color": "#ffffff", "weight": 2, "fillOpacity": 0.900000, "opacity": 1, "tipus": "marker", "_dashArray": null }, "properties": { "tipuscap": "M", "nomcap": "Noves de Segre", "codimuni": "259062", "capprov": "N", "dataalta": "201707262100", "codiprov": "25", "codicomar": "04" }, "geometry": { "type": "Point", "coordinates": [ 1.341833, 42.29396 ] } },
{ "type": "Feature", "styles": { "radius": 6, "isCanvas": true, "fillColor": "#ffc500", "color": "#ffffff", "weight": 2, "fillOpacity": 0.900000, "opacity": 1, "tipus": "marker", "_dashArray": null }, "properties": { "tipuscap": "M", "nomcap": "Navès", "codimuni": "251462", "capprov": "N", "dataalta": "201707262100", "codiprov": "25", "codicomar": "35" }, "geometry": { "type": "Point", "coordinates": [ 1.636755, 41.992269 ] } },
{ "type": "Feature", "styles": { "radius": 6, "isCanvas": true, "fillColor": "#ffc500", "color": "#ffffff", "weight": 2, "fillOpacity": 0.900000, "opacity": 1, "tipus": "marker", "_dashArray": null }, "properties": { "tipuscap": "M", "nomcap": "Vila-sacra", "codimuni": "172305", "capprov": "N", "dataalta": "201707262100", "codiprov": "17", "codicomar": "02" }, "geometry": { "type": "Point", "coordinates": [ 3.018439, 42.265455 ] } },
{ "type": "Feature", "styles": { "radius": 6, "isCanvas": true, "fillColor": "#ffc500", "color": "#ffffff", "weight": 2, "fillOpacity": 0.900000, "opacity": 1, "tipus": "marker", "_dashArray": null }, "properties": { "tipuscap": "M", "nomcap": "el Vilar d'Urtx", "codimuni": "170694", "capprov": "N", "dataalta": "201707262100", "codiprov": "17", "codicomar": "15" }, "geometry": { "type": "Point", "coordinates": [ 1.89947, 42.384997 ] } },
{ "type": "Feature", "styles": { "radius": 6, "isCanvas": true, "fillColor": "#ffc500", "color": "#ffffff", "weight": 2, "fillOpacity": 0.900000, "opacity": 1, "tipus": "marker", "_dashArray": null }, "properties": { "tipuscap": "M", "nomcap": "Sant Martí de Llémena", "codimuni": "171729", "capprov": "N", "dataalta": "201707262100", "codiprov": "17", "codicomar": "20" }, "geometry": { "type": "Point", "coordinates": [ 2.647611, 42.036154 ] } },
{ "type": "Feature", "styles": { "radius": 6, "isCanvas": true, "fillColor": "#ffc500", "color": "#ffffff", "weight": 2, "fillOpacity": 0.900000, "opacity": 1, "tipus": "marker", "_dashArray": null }, "properties": { "tipuscap": "M", "nomcap": "Sant Vicenç de Montalt", "codimuni": "082649", "capprov": "N", "dataalta": "201707262100", "codiprov": "08", "codicomar": "21" }, "geometry": { "type": "Point", "coordinates": [ 2.508766, 41.57902 ] } },
{ "type": "Feature", "styles": { "radius": 6, "isCanvas": true, "fillColor": "#ffc500", "color": "#ffffff", "weight": 2, "fillOpacity": 0.900000, "opacity": 1, "tipus": "marker", "_dashArray": null }, "properties": { "tipuscap": "M", "nomcap": "Beuda", "codimuni": "170216", "capprov": "N", "dataalta": "201707262100", "codiprov": "17", "codicomar": "19" }, "geometry": { "type": "Point", "coordinates": [ 2.709811, 42.237127 ] } },
{ "type": "Feature", "styles": { "radius": 6, "isCanvas": true, "fillColor": "#ffc500", "color": "#ffffff", "weight": 2, "fillOpacity": 0.900000, "opacity": 1, "tipus": "marker", "_dashArray": null }, "properties": { "tipuscap": "M", "nomcap": "Bellprat", "codimuni": "080214", "capprov": "N", "dataalta": "201707262100", "codiprov": "08", "codicomar": "06" }, "geometry": { "type": "Point", "coordinates": [ 1.434455, 41.517247 ] } },
{ "type": "Feature", "styles": { "radius": 6, "isCanvas": true, "fillColor": "#ffc500", "color": "#ffffff", "weight": 2, "fillOpacity": 0.900000, "opacity": 1, "tipus": "marker", "_dashArray": null }, "properties": { "tipuscap": "M", "nomcap": "Torre-serona", "codimuni": "252332", "capprov": "N", "dataalta": "201707262100", "codiprov": "25", "codicomar": "33" }, "geometry": { "type": "Point", "coordinates": [ 0.631037, 41.672968 ] } },
{ "type": "Feature", "styles": { "radius": 6, "isCanvas": true, "fillColor": "#ffc500", "color": "#ffffff", "weight": 2, "fillOpacity": 0.900000, "opacity": 1, "tipus": "marker", "_dashArray": null }, "properties": { "tipuscap": "M", "nomcap": "Sant Quirze de Besora", "codimuni": "082378", "capprov": "N", "dataalta": "201707262100", "codiprov": "08", "codicomar": "24" }, "geometry": { "type": "Point", "coordinates": [ 2.222225, 42.100285 ] } },
{ "type": "Feature", "styles": { "radius": 6, "isCanvas": true, "fillColor": "#ffc500", "color": "#ffffff", "weight": 2, "fillOpacity": 0.900000, "opacity": 1, "tipus": "marker", "_dashArray": null }, "properties": { "tipuscap": "M", "nomcap": "Gualba", "codimuni": "080977", "capprov": "N", "dataalta": "201707262100", "codiprov": "08", "codicomar": "41" }, "geometry": { "type": "Point", "coordinates": [ 2.50192, 41.732046 ] } },
{ "type": "Feature", "styles": { "radius": 6, "isCanvas": true, "fillColor": "#ffc500", "color": "#ffffff", "weight": 2, "fillOpacity": 0.900000, "opacity": 1, "tipus": "marker", "_dashArray": null }, "properties": { "tipuscap": "M", "nomcap": "Vallfogona de Riucorb", "codimuni": "431592", "capprov": "N", "dataalta": "201707262100", "codiprov": "43", "codicomar": "16" }, "geometry": { "type": "Point", "coordinates": [ 1.236229, 41.563097 ] } },
{ "type": "Feature", "styles": { "radius": 6, "isCanvas": true, "fillColor": "#ffc500", "color": "#ffffff", "weight": 2, "fillOpacity": 0.900000, "opacity": 1, "tipus": "marker", "_dashArray": null }, "properties": { "tipuscap": "M", "nomcap": "Tírvia", "codimuni": "252213", "capprov": "N", "dataalta": "201707262100", "codiprov": "25", "codicomar": "26" }, "geometry": { "type": "Point", "coordinates": [ 1.242875, 42.515151 ] } },
{ "type": "Feature", "styles": { "radius": 6, "isCanvas": true, "fillColor": "#ffc500", "color": "#ffffff", "weight": 2, "fillOpacity": 0.900000, "opacity": 1, "tipus": "marker", "_dashArray": null }, "properties": { "tipuscap": "C", "nomcap": "Moià", "codimuni": "081385", "capprov": "N", "dataalta": "201707262100", "codiprov": "08", "codicomar": "42" }, "geometry": { "type": "Point", "coordinates": [ 2.096923, 41.812869 ] } },
{ "type": "Feature", "styles": { "radius": 6, "isCanvas": true, "fillColor": "#ffc500", "color": "#ffffff", "weight": 2, "fillOpacity": 0.900000, "opacity": 1, "tipus": "marker", "_dashArray": null }, "properties": { "tipuscap": "M", "nomcap": "Llimiana", "codimuni": "251288", "capprov": "N", "dataalta": "201707262100", "codiprov": "25", "codicomar": "25" }, "geometry": { "type": "Point", "coordinates": [ 0.916202, 42.075144 ] } },
{ "type": "Feature", "styles": { "radius": 6, "isCanvas": true, "fillColor": "#ffc500", "color": "#ffffff", "weight": 2, "fillOpacity": 0.900000, "opacity": 1, "tipus": "marker", "_dashArray": null }, "properties": { "tipuscap": "C", "nomcap": "Móra d'Ebre", "codimuni": "430939", "capprov": "N", "dataalta": "201707262100", "codiprov": "43", "codicomar": "30" }, "geometry": { "type": "Point", "coordinates": [ 0.641767, 41.093143 ] } },
{ "type": "Feature", "styles": { "radius": 6, "isCanvas": true, "fillColor": "#ffc500", "color": "#ffffff", "weight": 2, "fillOpacity": 0.900000, "opacity": 1, "tipus": "marker", "_dashArray": null }, "properties": { "tipuscap": "M", "nomcap": "Sant Andreu de Llavaneres", "codimuni": "081976", "capprov": "N", "dataalta": "201707262100", "codiprov": "08", "codicomar": "21" }, "geometry": { "type": "Point", "coordinates": [ 2.483347, 41.574459 ] } },
{ "type": "Feature", "styles": { "radius": 6, "isCanvas": true, "fillColor": "#ffc500", "color": "#ffffff", "weight": 2, "fillOpacity": 0.900000, "opacity": 1, "tipus": "marker", "_dashArray": null }, "properties": { "tipuscap": "M", "nomcap": "Palau-solità i Plegamans", "codimuni": "081568", "capprov": "N", "dataalta": "201707262100", "codiprov": "08", "codicomar": "40" }, "geometry": { "type": "Point", "coordinates": [ 2.178421, 41.587543 ] } },
{ "type": "Feature", "styles": { "radius": 6, "isCanvas": true, "fillColor": "#ffc500", "color": "#ffffff", "weight": 2, "fillOpacity": 0.900000, "opacity": 1, "tipus": "marker", "_dashArray": null }, "properties": { "tipuscap": "M", "nomcap": "Sant Andreu Salou", "codimuni": "171576", "capprov": "N", "dataalta": "201707262100", "codiprov": "17", "codicomar": "20" }, "geometry": { "type": "Point", "coordinates": [ 2.82552, 41.873359 ] } },
{ "type": "Feature", "styles": { "radius": 6, "isCanvas": true, "fillColor": "#ffc500", "color": "#ffffff", "weight": 2, "fillOpacity": 0.900000, "opacity": 1, "tipus": "marker", "_dashArray": null }, "properties": { "tipuscap": "M", "nomcap": "Pacs del Penedès", "codimuni": "081542", "capprov": "N", "dataalta": "201707262100", "codiprov": "08", "codicomar": "03" }, "geometry": { "type": "Point", "coordinates": [ 1.66901, 41.361515 ] } },
{ "type": "Feature", "styles": { "radius": 6, "isCanvas": true, "fillColor": "#ffc500", "color": "#ffffff", "weight": 2, "fillOpacity": 0.900000, "opacity": 1, "tipus": "marker", "_dashArray": null }, "properties": { "tipuscap": "M", "nomcap": "Vilamaniscle", "codimuni": "172272", "capprov": "N", "dataalta": "201707262100", "codiprov": "17", "codicomar": "02" }, "geometry": { "type": "Point", "coordinates": [ 3.067799, 42.375492 ] } },
{ "type": "Feature", "styles": { "radius": 6, "isCanvas": true, "fillColor": "#ffc500", "color": "#ffffff", "weight": 2, "fillOpacity": 0.900000, "opacity": 1, "tipus": "marker", "_dashArray": null }, "properties": { "tipuscap": "M", "nomcap": "Garcia", "codimuni": "430653", "capprov": "N", "dataalta": "201707262100", "codiprov": "43", "codicomar": "30" }, "geometry": { "type": "Point", "coordinates": [ 0.648706, 41.136677 ] } },
{ "type": "Feature", "styles": { "radius": 6, "isCanvas": true, "fillColor": "#ffc500", "color": "#ffffff", "weight": 2, "fillOpacity": 0.900000, "opacity": 1, "tipus": "marker", "_dashArray": null }, "properties": { "tipuscap": "M", "nomcap": "Llavorsí", "codimuni": "251266", "capprov": "N", "dataalta": "201707262100", "codiprov": "25", "codicomar": "26" }, "geometry": { "type": "Point", "coordinates": [ 1.20887, 42.49746 ] } },
{ "type": "Feature", "styles": { "radius": 6, "isCanvas": true, "fillColor": "#ffc500", "color": "#ffffff", "weight": 2, "fillOpacity": 0.900000, "opacity": 1, "tipus": "marker", "_dashArray": null }, "properties": { "tipuscap": "M", "nomcap": "Guimerà", "codimuni": "251095", "capprov": "N", "dataalta": "201707262100", "codiprov": "25", "codicomar": "38" }, "geometry": { "type": "Point", "coordinates": [ 1.18363, 41.564205 ] } },
{ "type": "Feature", "styles": { "radius": 6, "isCanvas": true, "fillColor": "#ffc500", "color": "#ffffff", "weight": 2, "fillOpacity": 0.900000, "opacity": 1, "tipus": "marker", "_dashArray": null }, "properties": { "tipuscap": "M", "nomcap": "Ulldecona", "codimuni": "431567", "capprov": "N", "dataalta": "201707262100", "codiprov": "43", "codicomar": "22" }, "geometry": { "type": "Point", "coordinates": [ 0.448798, 40.598043 ] } },
{ "type": "Feature", "styles": { "radius": 6, "isCanvas": true, "fillColor": "#ffc500", "color": "#ffffff", "weight": 2, "fillOpacity": 0.900000, "opacity": 1, "tipus": "marker", "_dashArray": null }, "properties": { "tipuscap": "M", "nomcap": "Sarroca de Lleida", "codimuni": "252000", "capprov": "N", "dataalta": "201707262100", "codiprov": "25", "codicomar": "33" }, "geometry": { "type": "Point", "coordinates": [ 0.561684, 41.459129 ] } },
{ "type": "Feature", "styles": { "radius": 6, "isCanvas": true, "fillColor": "#ffc500", "color": "#ffffff", "weight": 2, "fillOpacity": 0.900000, "opacity": 1, "tipus": "marker", "_dashArray": null }, "properties": { "tipuscap": "M", "nomcap": "Hostalric", "codimuni": "170834", "capprov": "N", "dataalta": "201707262100", "codiprov": "17", "codicomar": "34" }, "geometry": { "type": "Point", "coordinates": [ 2.641347, 41.745809 ] } },
{ "type": "Feature", "styles": { "radius": 6, "isCanvas": true, "fillColor": "#ffc500", "color": "#ffffff", "weight": 2, "fillOpacity": 0.900000, "opacity": 1, "tipus": "marker", "_dashArray": null }, "properties": { "tipuscap": "M", "nomcap": "l'Ampolla", "codimuni": "439060", "capprov": "N", "dataalta": "201707262100", "codiprov": "43", "codicomar": "09" }, "geometry": { "type": "Point", "coordinates": [ 0.714341, 40.814207 ] } },
{ "type": "Feature", "styles": { "radius": 6, "isCanvas": true, "fillColor": "#ffc500", "color": "#ffffff", "weight": 2, "fillOpacity": 0.900000, "opacity": 1, "tipus": "marker", "_dashArray": null }, "properties": { "tipuscap": "M", "nomcap": "Sant Pau d'Ordal", "codimuni": "082732", "capprov": "N", "dataalta": "201707262100", "codiprov": "08", "codicomar": "03" }, "geometry": { "type": "Point", "coordinates": [ 1.794653, 41.382414 ] } },
{ "type": "Feature", "styles": { "radius": 6, "isCanvas": true, "fillColor": "#ffc500", "color": "#ffffff", "weight": 2, "fillOpacity": 0.900000, "opacity": 1, "tipus": "marker", "_dashArray": null }, "properties": { "tipuscap": "M", "nomcap": "Das", "codimuni": "170617", "capprov": "N", "dataalta": "201707262100", "codiprov": "17", "codicomar": "15" }, "geometry": { "type": "Point", "coordinates": [ 1.870114, 42.36162 ] } },
{ "type": "Feature", "styles": { "radius": 6, "isCanvas": true, "fillColor": "#ffc500", "color": "#ffffff", "weight": 2, "fillOpacity": 0.900000, "opacity": 1, "tipus": "marker", "_dashArray": null }, "properties": { "tipuscap": "M", "nomcap": "Pont de Molins", "codimuni": "171352", "capprov": "N", "dataalta": "201707262100", "codiprov": "17", "codicomar": "02" }, "geometry": { "type": "Point", "coordinates": [ 2.925539, 42.314643 ] } },
{ "type": "Feature", "styles": { "radius": 6, "isCanvas": true, "fillColor": "#ffc500", "color": "#ffffff", "weight": 2, "fillOpacity": 0.900000, "opacity": 1, "tipus": "marker", "_dashArray": null }, "properties": { "tipuscap": "M", "nomcap": "Ripollet", "codimuni": "081803", "capprov": "N", "dataalta": "201707262100", "codiprov": "08", "codicomar": "40" }, "geometry": { "type": "Point", "coordinates": [ 2.153492, 41.496502 ] } },
{ "type": "Feature", "styles": { "radius": 6, "isCanvas": true, "fillColor": "#ffc500", "color": "#ffffff", "weight": 2, "fillOpacity": 0.900000, "opacity": 1, "tipus": "marker", "_dashArray": null }, "properties": { "tipuscap": "M", "nomcap": "Guissona", "codimuni": "251109", "capprov": "N", "dataalta": "201707262100", "codiprov": "25", "codicomar": "32" }, "geometry": { "type": "Point", "coordinates": [ 1.288303, 41.784648 ] } },
{ "type": "Feature", "styles": { "radius": 6, "isCanvas": true, "fillColor": "#ffc500", "color": "#ffffff", "weight": 2, "fillOpacity": 0.900000, "opacity": 1, "tipus": "marker", "_dashArray": null }, "properties": { "tipuscap": "M", "nomcap": "Mura", "codimuni": "081398", "capprov": "N", "dataalta": "201707262100", "codiprov": "08", "codicomar": "07" }, "geometry": { "type": "Point", "coordinates": [ 1.976188, 41.699541 ] } },
{ "type": "Feature", "styles": { "radius": 6, "isCanvas": true, "fillColor": "#ffc500", "color": "#ffffff", "weight": 2, "fillOpacity": 0.900000, "opacity": 1, "tipus": "marker", "_dashArray": null }, "properties": { "tipuscap": "M", "nomcap": "Pujalt", "codimuni": "081764", "capprov": "N", "dataalta": "201707262100", "codiprov": "08", "codicomar": "06" }, "geometry": { "type": "Point", "coordinates": [ 1.422601, 41.717335 ] } },
{ "type": "Feature", "styles": { "radius": 6, "isCanvas": true, "fillColor": "#ffc500", "color": "#ffffff", "weight": 2, "fillOpacity": 0.900000, "opacity": 1, "tipus": "marker", "_dashArray": null }, "properties": { "tipuscap": "M", "nomcap": "Sant Martí d'Albars", "codimuni": "082251", "capprov": "N", "dataalta": "201707262100", "codiprov": "08", "codicomar": "24" }, "geometry": { "type": "Point", "coordinates": [ 2.074149, 42.027966 ] } },
{ "type": "Feature", "styles": { "radius": 6, "isCanvas": true, "fillColor": "#ffc500", "color": "#ffffff", "weight": 2, "fillOpacity": 0.900000, "opacity": 1, "tipus": "marker", "_dashArray": null }, "properties": { "tipuscap": "M", "nomcap": "Castellar de la Ribera", "codimuni": "250642", "capprov": "N", "dataalta": "201707262100", "codiprov": "25", "codicomar": "35" }, "geometry": { "type": "Point", "coordinates": [ 1.415558, 42.022653 ] } },
{ "type": "Feature", "styles": { "radius": 6, "isCanvas": true, "fillColor": "#ffc500", "color": "#ffffff", "weight": 2, "fillOpacity": 0.900000, "opacity": 1, "tipus": "marker", "_dashArray": null }, "properties": { "tipuscap": "M", "nomcap": "Regencós", "codimuni": "171447", "capprov": "N", "dataalta": "201707262100", "codiprov": "17", "codicomar": "10" }, "geometry": { "type": "Point", "coordinates": [ 3.17188, 41.952855 ] } },
{ "type": "Feature", "styles": { "radius": 6, "isCanvas": true, "fillColor": "#ffc500", "color": "#ffffff", "weight": 2, "fillOpacity": 0.900000, "opacity": 1, "tipus": "marker", "_dashArray": null }, "properties": { "tipuscap": "M", "nomcap": "Rellinars", "codimuni": "081799", "capprov": "N", "dataalta": "201707262100", "codiprov": "08", "codicomar": "40" }, "geometry": { "type": "Point", "coordinates": [ 1.910775, 41.637431 ] } },
{ "type": "Feature", "styles": { "radius": 6, "isCanvas": true, "fillColor": "#ffc500", "color": "#ffffff", "weight": 2, "fillOpacity": 0.900000, "opacity": 1, "tipus": "marker", "_dashArray": null }, "properties": { "tipuscap": "M", "nomcap": "la Bisbal de Falset", "codimuni": "430271", "capprov": "N", "dataalta": "201707262100", "codiprov": "43", "codicomar": "29" }, "geometry": { "type": "Point", "coordinates": [ 0.723326, 41.280226 ] } },
{ "type": "Feature", "styles": { "radius": 6, "isCanvas": true, "fillColor": "#ffc500", "color": "#ffffff", "weight": 2, "fillOpacity": 0.900000, "opacity": 1, "tipus": "marker", "_dashArray": null }, "properties": { "tipuscap": "M", "nomcap": "Gisclareny", "codimuni": "080930", "capprov": "N", "dataalta": "201707262100", "codiprov": "08", "codicomar": "14" }, "geometry": { "type": "Point", "coordinates": [ 1.786465, 42.250037 ] } },
{ "type": "Feature", "styles": { "radius": 6, "isCanvas": true, "fillColor": "#ffc500", "color": "#ffffff", "weight": 2, "fillOpacity": 0.900000, "opacity": 1, "tipus": "marker", "_dashArray": null }, "properties": { "tipuscap": "M", "nomcap": "Sant Sadurní d'Anoia", "codimuni": "082401", "capprov": "N", "dataalta": "201707262100", "codiprov": "08", "codicomar": "03" }, "geometry": { "type": "Point", "coordinates": [ 1.787301, 41.424212 ] } },
{ "type": "Feature", "styles": { "radius": 6, "isCanvas": true, "fillColor": "#ffc500", "color": "#ffffff", "weight": 2, "fillOpacity": 0.900000, "opacity": 1, "tipus": "marker", "_dashArray": null }, "properties": { "tipuscap": "M", "nomcap": "Meranges", "codimuni": "170998", "capprov": "N", "dataalta": "201707262100", "codiprov": "17", "codicomar": "15" }, "geometry": { "type": "Point", "coordinates": [ 1.786916, 42.445774 ] } },
{ "type": "Feature", "styles": { "radius": 6, "isCanvas": true, "fillColor": "#ffc500", "color": "#ffffff", "weight": 2, "fillOpacity": 0.900000, "opacity": 1, "tipus": "marker", "_dashArray": null }, "properties": { "tipuscap": "M", "nomcap": "Castelldans", "codimuni": "250674", "capprov": "N", "dataalta": "201707262100", "codiprov": "25", "codicomar": "18" }, "geometry": { "type": "Point", "coordinates": [ 0.765325, 41.496613 ] } },
{ "type": "Feature", "styles": { "radius": 6, "isCanvas": true, "fillColor": "#ffc500", "color": "#ffffff", "weight": 2, "fillOpacity": 0.900000, "opacity": 1, "tipus": "marker", "_dashArray": null }, "properties": { "tipuscap": "M", "nomcap": "la Pobla de Mafumet", "codimuni": "431093", "capprov": "N", "dataalta": "201707262100", "codiprov": "43", "codicomar": "36" }, "geometry": { "type": "Point", "coordinates": [ 1.209285, 41.187589 ] } },
{ "type": "Feature", "styles": { "radius": 6, "isCanvas": true, "fillColor": "#ffc500", "color": "#ffffff", "weight": 2, "fillOpacity": 0.900000, "opacity": 1, "tipus": "marker", "_dashArray": null }, "properties": { "tipuscap": "M", "nomcap": "Viladecavalls", "codimuni": "083008", "capprov": "N", "dataalta": "201707262100", "codiprov": "08", "codicomar": "40" }, "geometry": { "type": "Point", "coordinates": [ 1.954375, 41.55533 ] } },
{ "type": "Feature", "styles": { "radius": 6, "isCanvas": true, "fillColor": "#ffc500", "color": "#ffffff", "weight": 2, "fillOpacity": 0.900000, "opacity": 1, "tipus": "marker", "_dashArray": null }, "properties": { "tipuscap": "M", "nomcap": "Valls", "codimuni": "251116", "capprov": "N", "dataalta": "201707262100", "codiprov": "25", "codicomar": "35" }, "geometry": { "type": "Point", "coordinates": [ 1.666343, 42.132434 ] } },
{ "type": "Feature", "styles": { "radius": 6, "isCanvas": true, "fillColor": "#ffc500", "color": "#ffffff", "weight": 2, "fillOpacity": 0.900000, "opacity": 1, "tipus": "marker", "_dashArray": null }, "properties": { "tipuscap": "M", "nomcap": "Duesaigües", "codimuni": "430537", "capprov": "N", "dataalta": "201707262100", "codiprov": "43", "codicomar": "08" }, "geometry": { "type": "Point", "coordinates": [ 0.930692, 41.146053 ] } },
{ "type": "Feature", "styles": { "radius": 6, "isCanvas": true, "fillColor": "#ffc500", "color": "#ffffff", "weight": 2, "fillOpacity": 0.900000, "opacity": 1, "tipus": "marker", "_dashArray": null }, "properties": { "tipuscap": "M", "nomcap": "Jafre", "codimuni": "170852", "capprov": "N", "dataalta": "201707262100", "codiprov": "17", "codicomar": "10" }, "geometry": { "type": "Point", "coordinates": [ 3.01076, 42.071966 ] } },
{ "type": "Feature", "styles": { "radius": 6, "isCanvas": true, "fillColor": "#ffc500", "color": "#ffffff", "weight": 2, "fillOpacity": 0.900000, "opacity": 1, "tipus": "marker", "_dashArray": null }, "properties": { "tipuscap": "M", "nomcap": "Sant Miquel de Campmajor", "codimuni": "171740", "capprov": "N", "dataalta": "201707262100", "codiprov": "17", "codicomar": "28" }, "geometry": { "type": "Point", "coordinates": [ 2.684407, 42.125793 ] } },
{ "type": "Feature", "styles": { "radius": 6, "isCanvas": true, "fillColor": "#ffc500", "color": "#ffffff", "weight": 2, "fillOpacity": 0.900000, "opacity": 1, "tipus": "marker", "_dashArray": null }, "properties": { "tipuscap": "M", "nomcap": "la Pobla de Montornès", "codimuni": "431114", "capprov": "N", "dataalta": "201707262100", "codiprov": "43", "codicomar": "36" }, "geometry": { "type": "Point", "coordinates": [ 1.414486, 41.178823 ] } },
{ "type": "Feature", "styles": { "radius": 6, "isCanvas": true, "fillColor": "#ffc500", "color": "#ffffff", "weight": 2, "fillOpacity": 0.900000, "opacity": 1, "tipus": "marker", "_dashArray": null }, "properties": { "tipuscap": "M", "nomcap": "Navata", "codimuni": "171117", "capprov": "N", "dataalta": "201707262100", "codiprov": "17", "codicomar": "02" }, "geometry": { "type": "Point", "coordinates": [ 2.860539, 42.223746 ] } },
{ "type": "Feature", "styles": { "radius": 6, "isCanvas": true, "fillColor": "#ffc500", "color": "#ffffff", "weight": 2, "fillOpacity": 0.900000, "opacity": 1, "tipus": "marker", "_dashArray": null }, "properties": { "tipuscap": "M", "nomcap": "Castellgalí", "codimuni": "080615", "capprov": "N", "dataalta": "201707262100", "codiprov": "08", "codicomar": "07" }, "geometry": { "type": "Point", "coordinates": [ 1.838589, 41.675209 ] } },
{ "type": "Feature", "styles": { "radius": 6, "isCanvas": true, "fillColor": "#ffc500", "color": "#ffffff", "weight": 2, "fillOpacity": 0.900000, "opacity": 1, "tipus": "marker", "_dashArray": null }, "properties": { "tipuscap": "M", "nomcap": "Gombrèn", "codimuni": "170806", "capprov": "N", "dataalta": "201707262100", "codiprov": "17", "codicomar": "31" }, "geometry": { "type": "Point", "coordinates": [ 2.090943, 42.247855 ] } },
{ "type": "Feature", "styles": { "radius": 6, "isCanvas": true, "fillColor": "#ffc500", "color": "#ffffff", "weight": 2, "fillOpacity": 0.900000, "opacity": 1, "tipus": "marker", "_dashArray": null }, "properties": { "tipuscap": "M", "nomcap": "Llagostera", "codimuni": "170890", "capprov": "N", "dataalta": "201707262100", "codiprov": "17", "codicomar": "20" }, "geometry": { "type": "Point", "coordinates": [ 2.891817, 41.82881 ] } },
{ "type": "Feature", "styles": { "radius": 6, "isCanvas": true, "fillColor": "#ffc500", "color": "#ffffff", "weight": 2, "fillOpacity": 0.900000, "opacity": 1, "tipus": "marker", "_dashArray": null }, "properties": { "tipuscap": "M", "nomcap": "Vilamalla", "codimuni": "172266", "capprov": "N", "dataalta": "201707262100", "codiprov": "17", "codicomar": "02" }, "geometry": { "type": "Point", "coordinates": [ 2.970719, 42.217192 ] } },
{ "type": "Feature", "styles": { "radius": 6, "isCanvas": true, "fillColor": "#ffc500", "color": "#ffffff", "weight": 2, "fillOpacity": 0.900000, "opacity": 1, "tipus": "marker", "_dashArray": null }, "properties": { "tipuscap": "M", "nomcap": "Prades", "codimuni": "431166", "capprov": "N", "dataalta": "201707262100", "codiprov": "43", "codicomar": "08" }, "geometry": { "type": "Point", "coordinates": [ 0.988191, 41.309794 ] } },
{ "type": "Feature", "styles": { "radius": 6, "isCanvas": true, "fillColor": "#ffc500", "color": "#ffffff", "weight": 2, "fillOpacity": 0.900000, "opacity": 1, "tipus": "marker", "_dashArray": null }, "properties": { "tipuscap": "M", "nomcap": "el Morell", "codimuni": "430957", "capprov": "N", "dataalta": "201707262100", "codiprov": "43", "codicomar": "36" }, "geometry": { "type": "Point", "coordinates": [ 1.208727, 41.192108 ] } },
{ "type": "Feature", "styles": { "radius": 6, "isCanvas": true, "fillColor": "#ffc500", "color": "#ffffff", "weight": 2, "fillOpacity": 0.900000, "opacity": 1, "tipus": "marker", "_dashArray": null }, "properties": { "tipuscap": "M", "nomcap": "Castellserà", "codimuni": "250707", "capprov": "N", "dataalta": "201707262100", "codiprov": "25", "codicomar": "38" }, "geometry": { "type": "Point", "coordinates": [ 0.986964, 41.746844 ] } },
{ "type": "Feature", "styles": { "radius": 6, "isCanvas": true, "fillColor": "#ffc500", "color": "#ffffff", "weight": 2, "fillOpacity": 0.900000, "opacity": 1, "tipus": "marker", "_dashArray": null }, "properties": { "tipuscap": "M", "nomcap": "Vulpellac", "codimuni": "179026", "capprov": "N", "dataalta": "201707262100", "codiprov": "17", "codicomar": "10" }, "geometry": { "type": "Point", "coordinates": [ 3.055092, 41.959745 ] } },
{ "type": "Feature", "styles": { "radius": 6, "isCanvas": true, "fillColor": "#ffc500", "color": "#ffffff", "weight": 2, "fillOpacity": 0.900000, "opacity": 1, "tipus": "marker", "_dashArray": null }, "properties": { "tipuscap": "C", "nomcap": "Banyoles", "codimuni": "170157", "capprov": "N", "dataalta": "201707262100", "codiprov": "17", "codicomar": "28" }, "geometry": { "type": "Point", "coordinates": [ 2.763797, 42.116399 ] } },
{ "type": "Feature", "styles": { "radius": 6, "isCanvas": true, "fillColor": "#ffc500", "color": "#ffffff", "weight": 2, "fillOpacity": 0.900000, "opacity": 1, "tipus": "marker", "_dashArray": null }, "properties": { "tipuscap": "M", "nomcap": "l'Abella", "codimuni": "082248", "capprov": "N", "dataalta": "201707262100", "codiprov": "08", "codicomar": "24" }, "geometry": { "type": "Point", "coordinates": [ 2.250971, 41.763891 ] } },
{ "type": "Feature", "styles": { "radius": 6, "isCanvas": true, "fillColor": "#ffc500", "color": "#ffffff", "weight": 2, "fillOpacity": 0.900000, "opacity": 1, "tipus": "marker", "_dashArray": null }, "properties": { "tipuscap": "M", "nomcap": "Sant Martí de Maldà", "codimuni": "259025", "capprov": "N", "dataalta": "201707262100", "codiprov": "25", "codicomar": "38" }, "geometry": { "type": "Point", "coordinates": [ 1.053126, 41.560099 ] } },
{ "type": "Feature", "styles": { "radius": 6, "isCanvas": true, "fillColor": "#ffc500", "color": "#ffffff", "weight": 2, "fillOpacity": 0.900000, "opacity": 1, "tipus": "marker", "_dashArray": null }, "properties": { "tipuscap": "M", "nomcap": "Pineda de Mar", "codimuni": "081635", "capprov": "N", "dataalta": "201707262100", "codiprov": "08", "codicomar": "21" }, "geometry": { "type": "Point", "coordinates": [ 2.68953, 41.627522 ] } },
{ "type": "Feature", "styles": { "radius": 6, "isCanvas": true, "fillColor": "#ffc500", "color": "#ffffff", "weight": 2, "fillOpacity": 0.900000, "opacity": 1, "tipus": "marker", "_dashArray": null }, "properties": { "tipuscap": "M", "nomcap": "Sant Julià de Cerdanyola", "codimuni": "089030", "capprov": "N", "dataalta": "201707262100", "codiprov": "08", "codicomar": "14" }, "geometry": { "type": "Point", "coordinates": [ 1.892918, 42.223843 ] } },
{ "type": "Feature", "styles": { "radius": 6, "isCanvas": true, "fillColor": "#ffc500", "color": "#ffffff", "weight": 2, "fillOpacity": 0.900000, "opacity": 1, "tipus": "marker", "_dashArray": null }, "properties": { "tipuscap": "M", "nomcap": "el Molar", "codimuni": "430859", "capprov": "N", "dataalta": "201707262100", "codiprov": "43", "codicomar": "29" }, "geometry": { "type": "Point", "coordinates": [ 0.706156, 41.163751 ] } },
{ "type": "Feature", "styles": { "radius": 6, "isCanvas": true, "fillColor": "#ffc500", "color": "#ffffff", "weight": 2, "fillOpacity": 0.900000, "opacity": 1, "tipus": "marker", "_dashArray": null }, "properties": { "tipuscap": "M", "nomcap": "Sant Feliu de Guíxols", "codimuni": "171609", "capprov": "N", "dataalta": "201707262100", "codiprov": "17", "codicomar": "10" }, "geometry": { "type": "Point", "coordinates": [ 3.028399, 41.780448 ] } },
{ "type": "Feature", "styles": { "radius": 6, "isCanvas": true, "fillColor": "#ffc500", "color": "#ffffff", "weight": 2, "fillOpacity": 0.900000, "opacity": 1, "tipus": "marker", "_dashArray": null }, "properties": { "tipuscap": "M", "nomcap": "Sant Climent Sescebes", "codimuni": "171582", "capprov": "N", "dataalta": "201707262100", "codiprov": "17", "codicomar": "02" }, "geometry": { "type": "Point", "coordinates": [ 2.980043, 42.368981 ] } },
{ "type": "Feature", "styles": { "radius": 6, "isCanvas": true, "fillColor": "#ffc500", "color": "#ffffff", "weight": 2, "fillOpacity": 0.900000, "opacity": 1, "tipus": "marker", "_dashArray": null }, "properties": { "tipuscap": "M", "nomcap": "Castellvell del Camp", "codimuni": "430424", "capprov": "N", "dataalta": "201707262100", "codiprov": "43", "codicomar": "08" }, "geometry": { "type": "Point", "coordinates": [ 1.096907, 41.180553 ] } },
{ "type": "Feature", "styles": { "radius": 6, "isCanvas": true, "fillColor": "#ffc500", "color": "#ffffff", "weight": 2, "fillOpacity": 0.900000, "opacity": 1, "tipus": "marker", "_dashArray": null }, "properties": { "tipuscap": "M", "nomcap": "la Vilella Baixa", "codimuni": "431747", "capprov": "N", "dataalta": "201707262100", "codiprov": "43", "codicomar": "29" }, "geometry": { "type": "Point", "coordinates": [ 0.761862, 41.220559 ] } },
{ "type": "Feature", "styles": { "radius": 6, "isCanvas": true, "fillColor": "#ffc500", "color": "#ffffff", "weight": 2, "fillOpacity": 0.900000, "opacity": 1, "tipus": "marker", "_dashArray": null }, "properties": { "tipuscap": "M", "nomcap": "Capçanes", "codimuni": "430402", "capprov": "N", "dataalta": "201707262100", "codiprov": "43", "codicomar": "29" }, "geometry": { "type": "Point", "coordinates": [ 0.781303, 41.100147 ] } },
{ "type": "Feature", "styles": { "radius": 6, "isCanvas": true, "fillColor": "#ffc500", "color": "#ffffff", "weight": 2, "fillOpacity": 0.900000, "opacity": 1, "tipus": "marker", "_dashArray": null }, "properties": { "tipuscap": "M", "nomcap": "Sant Jaume de Frontanyà", "codimuni": "082166", "capprov": "N", "dataalta": "201707262100", "codiprov": "08", "codicomar": "14" }, "geometry": { "type": "Point", "coordinates": [ 2.025487, 42.186416 ] } },
{ "type": "Feature", "styles": { "radius": 6, "isCanvas": true, "fillColor": "#ffc500", "color": "#ffffff", "weight": 2, "fillOpacity": 0.900000, "opacity": 1, "tipus": "marker", "_dashArray": null }, "properties": { "tipuscap": "M", "nomcap": "Vallfogona de Ripollès", "codimuni": "171707", "capprov": "N", "dataalta": "201707262100", "codiprov": "17", "codicomar": "31" }, "geometry": { "type": "Point", "coordinates": [ 2.30415, 42.197289 ] } },
{ "type": "Feature", "styles": { "radius": 6, "isCanvas": true, "fillColor": "#ffc500", "color": "#ffffff", "weight": 2, "fillOpacity": 0.900000, "opacity": 1, "tipus": "marker", "_dashArray": null }, "properties": { "tipuscap": "M", "nomcap": "Cantallops", "codimuni": "170412", "capprov": "N", "dataalta": "201707262100", "codiprov": "17", "codicomar": "02" }, "geometry": { "type": "Point", "coordinates": [ 2.925958, 42.422682 ] } },
{ "type": "Feature", "styles": { "radius": 6, "isCanvas": true, "fillColor": "#ffc500", "color": "#ffffff", "weight": 2, "fillOpacity": 0.900000, "opacity": 1, "tipus": "marker", "_dashArray": null }, "properties": { "tipuscap": "M", "nomcap": "Belianes", "codimuni": "250463", "capprov": "N", "dataalta": "201707262100", "codiprov": "25", "codicomar": "38" }, "geometry": { "type": "Point", "coordinates": [ 1.017398, 41.561591 ] } },
{ "type": "Feature", "styles": { "radius": 6, "isCanvas": true, "fillColor": "#ffc500", "color": "#ffffff", "weight": 2, "fillOpacity": 0.900000, "opacity": 1, "tipus": "marker", "_dashArray": null }, "properties": { "tipuscap": "M", "nomcap": "l'Aldea", "codimuni": "439044", "capprov": "N", "dataalta": "201707262100", "codiprov": "43", "codicomar": "09" }, "geometry": { "type": "Point", "coordinates": [ 0.620294, 40.745894 ] } },
{ "type": "Feature", "styles": { "radius": 6, "isCanvas": true, "fillColor": "#ffc500", "color": "#ffffff", "weight": 2, "fillOpacity": 0.900000, "opacity": 1, "tipus": "marker", "_dashArray": null }, "properties": { "tipuscap": "M", "nomcap": "Vilassar de Dalt", "codimuni": "082140", "capprov": "N", "dataalta": "201707262100", "codiprov": "08", "codicomar": "21" }, "geometry": { "type": "Point", "coordinates": [ 2.359477, 41.516991 ] } },
{ "type": "Feature", "styles": { "radius": 6, "isCanvas": true, "fillColor": "#ffc500", "color": "#ffffff", "weight": 2, "fillOpacity": 0.900000, "opacity": 1, "tipus": "marker", "_dashArray": null }, "properties": { "tipuscap": "M", "nomcap": "Vilanova de Meià", "codimuni": "252509", "capprov": "N", "dataalta": "201707262100", "codiprov": "25", "codicomar": "23" }, "geometry": { "type": "Point", "coordinates": [ 1.02347, 41.99558 ] } },
{ "type": "Feature", "styles": { "radius": 6, "isCanvas": true, "fillColor": "#ffc500", "color": "#ffffff", "weight": 2, "fillOpacity": 0.900000, "opacity": 1, "tipus": "marker", "_dashArray": null }, "properties": { "tipuscap": "M", "nomcap": "Sant Esteve de Palautordera", "codimuni": "082074", "capprov": "N", "dataalta": "201707262100", "codiprov": "08", "codicomar": "41" }, "geometry": { "type": "Point", "coordinates": [ 2.435178, 41.70354 ] } },